[{"name":"과천센트럴파크 푸르지오써밋","location":"경기도 과천시(군)","count":6,"date":"2018-01-03","detail":"59A(1), 59T(1), 84A(3), 84B(1)","tel":"1877-5001"},
{"name":"힐스테이트 동탄2차 C-1블록","location":" 경기도 화성시(군)","count":3,"date":"2018-01-05","detail":"54A(1), 54B(1), 54C(1)","tel":"1644-2080"},
{"name":"원주단구 내안애카운티 에듀파크","location":"강원도 원주시(통합)","count":90,"date":"2018-01-09","detail":"1단지<84A(42), 84B(7), 84C(7)>, 2단지<84A(20), 84B(5), 84C(7), 84D(2)>","tel":"033-744-4560"},
{"name":"서대전역 코아루 써밋","location":"대전광역시(통합)","count":13,"date":"2018-01-09","detail":"59A(2), 59B(2), 63A(2), 63B(5), 63C(2)","tel":"042-618-9020"},
{"name":"e편한세상 동해","location":"강원도 동해시(통합)","count":63,"date":"2018-01-15","detail":"78A(12), 78B(16), 78C(11), 84A(24) ","tel":"033-535-0644"},
{"name":"첨단 진아리채","location":"광주광역시(통합)","count":23,"date":"2018-01-15","detail":"84(23)","tel":"062-363-0808"},
{"name":"e편한세상 둔산 1-2단지","location":"대전광역시(군)","count":2,"date":"2018-01-16","detail":"1단지 72A(1), 2단지 72A(1)","tel":"042-522-5522"},
{"name":"세종 트리쉐이드 리젠시","location":"세종시2-4생활권(군)","count":2,"date":"2018-01-16","detail":"84D(2)","tel":"1899-0633"},
{"name":"순천신대지구 B-1BL 중흥S클래스","location":"전라남도순천시(통합)","count":25,"date":"2018-01-22","detail":"84A(18), 84B(7)","tel":"061-727-5995"},
{"name":"부천 e편한세상 온수역","location":"경기도 부천시(통합)","count":21,"date":"2018-01-22","detail":"84A(12), 84B(9)","tel":"032-342-0066"},
{"name":"e편한세상 금오파크","location":"경북 구미시(통합)","count":108,"date":"2018-01-22","detail":"67(18), 84A(65), 84B(16), 84C(9)","tel":"054-462-9988"},
{"name":"원주기업도시 이지더원2차 2-1BL","location":"강원도 원주시(통합)","count":76,"date":"2018-01-22","detail":"59A(17), 59B(17), 84(42)","tel":"1855-3728"},
{"name":"송정동1-2단지 힐스테이트 송정","location":"경북 구미시(통합)","count":43,"date":"2018-01-22","detail":"1단지<59(15), 74A(3), 74B(5), 84A(5), 84B(7)>, 2단지<59(1), 74B(1), 84A(2), 84B(4)>","tel":"1899-0087"},
{"name":"성복역 롯데캐슬 파크나인","location":"경기도 용인시(통합)","count":33,"date":"2018-01-29","detail":"84A(15), 84B(18)","tel":"1644-9322"},
{"name":"미륵산 더테라스 오투그라데","location":"전북 익산시(통합)","count":12,"date":"2018-01-30","detail":"84A(7), 82B(1), 82C(4)","tel":"063-857-4272"},
{"name":"인천 계양산 파크 트루엘","location":"경기도 인천시(통합)","count":6,"date":"2018-01-31","detail":"59A(2), 59B(1), 59E(1), 59F(1), 59G(1)","tel":"032-547-1688"},
{"name":"각화동 센트럴파크 서희스타힐스","location":"전남 광주광역시(군)","count":2,"date":"2018-01-31","detail":"84(2)","tel":"062-266-9096"},
{"name":"평화2차 골드클래스 모악산","location":"전라북도 전주시","count":34,"date":"2018-02-13","detail":"84A(19), 84B(9), 84E(6)","tel":"063-717-7500"},
{"name":"수원 인계동 동문굿모닝힐","location":"경기도 수원시(군)","count":3,"date":"2018-02-13","detail":"63(1), 71(1), 79A(1)","tel":"031-646-2700"},
{"name":"성복역 롯데캐슬 파크나인","location":"경기도 용인시(통합)","count":33,"date":"2018-02-13","detail":"84A(15), 84B(18)","tel":"1644-9322"},
{"name":"e편한세상 보라매 2차","location":"서울 영등포구(군)","count":9,"date":"2018-02-21","detail":"59A(1), 59B(1), 59C(1), 84A(2), 84B(1), 84C(3)","tel":"1566-3551"},
{"name":"계양 효성해링턴 플레이스","location":"인천 계양구(통합)","count":106,"date":"2018-02-27","detail":"59A(23), 59B(8), 72A(11), 72B(18), 84A(39), 84B(7)","tel":"032-541-3030"},
{"name":"대구국가산업단지 줌파크","location":"대구 달성군(군)","count":7,"date":"2018-02-27","detail":"60.9157A(3), 84.3504B(1), 84.4828A(3)","tel":"1800-7300"},
{"name":"동일스위트 더파크","location":"경기도 김포시(통합)","count":169,"date":"2018-02-28","detail":"84.7155B(13), 84.8894C(13), 84.9584A(74), 84.7155B(16), 84.8894C(16), 84.9584A(37)","tel":"02-381-0022"},
{"name":"평택소사벌 효성해링턴코트","location":"경기도 평택시(통합)","count":38,"date":"2018-02-28","detail":"84.7700C(12), 84.7700D(12), 84.9900A(2), 84.9900B(12)","tel":"032-652-4470"},
{"name":"춘천 센트럴 타워 푸르지오","location":"강원도 춘천시(통합)","count":108,"date":"2018-03-02","detail":"84.9032G(18), 84.9238F(18), 84.9517A(27), 84.9751E(9), 84.9761B(9), 84.9761C(9), 84.9894D(18)","tel":"1811-1606"},
{"name":"창원 롯데캐슬 프리미어","location":"경남 창원시(군)","count":8,"date":"2018-03-02","detail":"84A(6), 84B(2)","tel":"055-242-0050"},
{"name":"과천 위버필드","location":"경기도 과천시(군)","count":3,"date":"2018-03-05","detail":"59A(1), 59B(1), 84A(1)","tel":"1600-0076"},
{"name":"디에이치 자이 개포","location":"서울 강남(군)","count":20,"date":"2018-03-05","detail":"63T(3), 76P(3), 76T(1), 84P(8), 84T(5)","tel":"02-575-1690"},
{"name":"청주 더샵 퍼스트파크","location":"충북 청주시(군)","count":21,"date":"2018-03-06","detail":"63A(5), 76A(4), 76B(3), 84C(2), 84A(5), 84B(2)","tel":"1544-8860"},
{"name":"에코르 10년 공공임대주택","location":"전북 장수, 임실(군)","count":2,"date":"2018-03-07","detail":"임실59A(1), 장수59A(1)","tel":"063-280-7491"},
{"name":"중흥S클래스","location":"경기도 고양시(통합)","count":72,"date":"2018-03-08","detail":"72(16, 84A(48), 84B(8)","tel":"031-968-9570"},
{"name":"논현 아이파크","location":"서울 강남구(통합)","count":10,"date":"2018-03-08","detail":"47(5), 59(5)","tel":"1600-4785"},
{"name":"e편한세상 창원 파크센트럴","location":"경남 창원(군)","count":13,"date":"2018-03-08","detail":"49(1), 59A(1), 59B(1), 59C(1), 59D(1), 72A(1), 72B(1), 72C(2), 84A(3), 84B(3)","tel":"055-293-0033"},
{"name":"방배서리풀 서해그랑블","location":"서울시 서초구(군)","count":1,"date":"2018-03-13","detail":"84A(1)","tel":"1600-0992"},
{"name":"부평 코오롱하늘채","location":"인천 부평구(통합)","count":56,"date":"2018-03-14","detail":"34(11), 59A(10), 59B(6), 71(2), 72A(17), 72B(2), 84(7)","tel":"1899-0313"},
{"name":"당산 센트럴 아이파크","location":"서울 영등포구(통합)","count":15,"date":"2018-03-14","detail":"46(1), 59A(1), 59B(3), 71A(3), 71B(1), 71C(3), 84A(1), 84B(1), 84D(1)","tel":"02-2632-5400"},
{"name":"복현 자이","location":"대구 북구(군)","count":7,"date":"2018-03-14","detail":"74(3), 84A(1), 84B(2), 84C(1)","tel":"1661-5523"},
{"name":"평택 더샵 센트럴파크","location":"경기도 평택(통합)","count":29,"date":"2018-03-14","detail":"59A(4), 59B(4), 74A(6), 74B(5), 83(7), 84(3)","tel":"1661-2270"},
{"name":"부평역 화성파크드림","location":"인천 부평구(통합)","count":54,"date":"2018-03-17","detail":"59A(15), 59B(3), 75A(6), 75B(10), 84A(14), 84B(6)","tel":"032-465-8922"},
{"name":"남양주 두산위브 트레지움","location":"경기도 남양주(통합)","count":50,"date":"2018-03-17","detail":"59A(14), 74B(9), 74A(8), 84(19)","tel":"031-557-3890"},
{"name":"시흥은계 S-3블록 10년 공공임대주택","location":"경기도 시흥시(군)","count":2,"date":"2018-03-17","detail":"51(1), 84(1)","tel":"02-2026-9481"},
{"name":"e편한세상 선부광장","location":"경기도 안산시(군)","count":3,"date":"2018-03-20","detail":"59B(1), 74(2)","tel":"031-439-2222"},
{"name":"시흥장현 B-3BL 금강펜테리움","location":"경기도 시흥시(군)","count":6,"date":"2018-03-20","detail":"79.9636(1), 79.9840(1), 84.9886(3), 84.9889(1)","tel":"1644-7794"},
{"name":"시흥 장현지구 B-5블록 제일풍경채 에듀","location":"경기도 시흥시(군)","count":8,"date":"2018-03-20","detail":"75.1125(2), 84.9260(6)","tel":"1577-2149"},
{"name":"시흥 장현지구 B-4블록 제일풍경채 센텀","location":"경기도 시흥시(군)","count":12,"date":"2018-03-20","detail":"75.8172(1), 84.9260(11)","tel":"1577-2149"},
{"name":"김포한강 Ac-01a블록 10년공공임대주택","location":"경기도 김포(군)","count":2,"date":"2018-03-20","detail":"51A(1), 59A(1)","tel":"031-999-5719"},
{"name":"동탄(2) A84블록 공공분양주택","location":"경기도 화성시(군)","count":2,"date":"2018-03-20","detail":"72A(1), 84B(1)","tel":"031-8077-7990"},
{"name":"마포프레스티지자이","location":"서울시 마포구(군)","count":7,"date":"2018-03-20","detail":"59A(1), 59C(1), 59F(2), 84B(1), 84C(1), 84E(1)","tel":"02-2135-1694"},
{"name":"송산신도시 모아미래도 에듀포레","location":"경기도 화성시(통합)","count":49,"date":"2018-03-20","detail":"84A(31), 84B(7), 84C(11)","tel":"1644-7447"},
{"name":"힐스테이트 리버시티","location":"경기도 김포시(군)","count":30,"date":"2018-03-22","detail":"1단지(14), 2단지(16)","tel":"1544-1522"},
{"name":"동탄역 예미지 3차","location":"경기도 화성시(군)","count":3,"date":"2018-03-22","detail":"84A(1), 84B(1), 84C(1)","tel":"1899-7642"},
{"name":"사하역 비스타동원","location":"부산 사하구(군)","count":3,"date":"2018-03-26","detail":"74D(1), 84B(1), 84C(1)","tel":"1566-9300"},
{"name":"양주옥정 대방노블랜드","location":"경기도 양주시(통합)","count":109,"date":"2018-03-26","detail":"73A(5), 73B(1), 73C(8), 73D(8), 84A(14), 84B(24), 84C(20), 84D(20)","tel":"1688-6800"},
{"name":"e편한세상 양주신도시 4차","location":"경기도 양주시(군)","count":19,"date":"2018-03-28","detail":"66(2), 67(1), 74A(4), 74B(1), 84(11)","tel":"031-868-9500"},
{"name":"평택 더샵 센트럴파크","location":"경기도 평택시(통합)","count":43,"date":"2018-03-28","detail":"59A(10), 59B(2), 74A(12), 74B(4), 74C(3), 83(7), 84(5)","tel":"1661-2270"},
{"name":"평택 소사벌 아너하임","location":"경기도 평택시(통합)","count":15,"date":"2018-03-28","detail":"84A1(8), 84A2(7)","tel":"031-656-0186"},
{"name":"가평 블루핀","location":"경기도 가평군(통합)","count":11,"date":"2018-03-30","detail":"63(7), 84A(3), 84B(1)","tel":"1566-9099"},
{"name":"익산 부송 꿈에그린","location":"전북 익산(통합)","count":60,"date":"2018-03-30","detail":"59A(7), 59B(6), 59C(6), 74(14), 84A(14), 84B(13)","tel":"1566-5111"},
{"name":"화성봉담2 S-1블록 10년 공공임대","location":"경기도 화성시(군)","count":2,"date":"2018-03-30","detail":"51B(1), 59C(1)","tel":"031-250-8295"},
{"name":"HC2블록 제일풍경채 위너스카이","location":"세종시2-4생활권(군)","count":7,"date":"2018-03-30","detail":"84A(4), 84B(2), 84G(1)","tel":"1588-1216"},
{"name":"세종마스터힐스","location":"세종시 6-4생활권","count":34,"date":"2018-04-02","detail":"L1<59A(14), 84A(6), 84C(2), 84D(2)>, M1<84A(2), 84C(2), 84D(4), 84E(2)","tel":"044-216-6210"},
{"name":"양산 양우 내안애 파크뷰","location":"경상남도 양산시(군)","count":26,"date":"2018-04-09","detail":"84A(15), 84B(11)","tel":""},
{"name":"바구멀1구역 서신아이파크 e편한세상","location":"전북 전주시(통합)","count":81,"date":"2018-04-12","detail":"34(5), 59A(3), 59B(10), 59C(6), 59D(4), 84A(18), 84B(30), 84C(5) ","tel":"1588-8027"},
{"name":"e편한세상 인창 어반포레","location":"경기도 구리시(통합)","count":32,"date":"2018-04-12","detail":"39(7), 59(7), 59(6), 84.9960(10), 84.9980(2)","tel":"031-566-3838"},
{"name":"e편한세상 문래아파트","location":"서울 영등포구(군)","count":6,"date":"2018-04-17","detail":"59A(3), 59B(1), 59C(2)","tel":"02-2061-2070"},
{"name":"청주 동남지구 B7블럭 우미린 아파트","location":"충북 청주시(통합)","count":99,"date":"2018-04-17","detail":"69.8386A(27), 67.7134B(11), 78.5311A(6), 78.7880B(2), 84.9687A(53)","tel":"043-287-0100"},
{"name":"대구 연경 금성백조 예미지","location":"대구 북구(군)","count":9,"date":"2018-04-18","detail":"78(2), 84(7)","tel":"1899-3935"},
{"name":"e편한세상 대전법동 아파트","location":"대전 대덕구(통합)","count":40,"date":"2018-04-19","detail":"74A(7), 74B(12), 84A(8), 84B(10), 84C(3)","tel":"042-822-1355"},
{"name":"하남 포웰시티","location":"경기도 하남시(군)","count":22,"date":"2018-04-19","detail":"73(총 11세대 / 하남 거주자 3세대, 기타지역 8세대),84(총11세대 / 하남 거주자 3세대, 기타지역 8세대)","tel":"1577-5811"},
{"name":"고덕자이","location":"서울시 강동구(군)","count":17,"date":"2018-04-19","detail":"52(1), 59A(4), 59B(4), 74A(1), 74B(1), 84B(6)","tel":"1661-4524"},
{"name":"해운대 센트럴 푸르지오","location":"부산 해운대구(통합)","count":54,"date":"2018-04-20","detail":"84㎡A(18), 84㎡B(9), 84㎡C(27)","tel":"051-742-9990"},
{"name":"성복역 롯데캐슬 파크나인 2차","location":"경기도 용인(군)","count":7,"date":"2018-04-20","detail":"84A(3), 84B(4)","tel":"1644-9322"},
{"name":"평화3차 골드클래스","location":"전북 전주(통합)","count":22,"date":"2018-04-20","detail":"84A(9), 84C(9), 84D(4)","tel":"063-717-7500"},
{"name":"앞산봉덕 영무예다음 공동주택","location":"대구 남구(군)","count":5,"date":"2018-04-20","detail":"59(1), 84A(3), 84B(1)","tel":"053-472-0700"},
{"name":"대구국가산단 반도유보라 아이비파크 3.","location":"대구 달성군(통합)","count":77,"date":"2018-04-24","detail":"74.9638(42), 74.2629(15), 78.9728(20)","tel":"1800-1122"},
{"name":"신동백 두산위브더제니스","location":"경기도 용인시(군)","count":116,"date":"2018-04-25","detail":"69(24세대), 78(46세대), 84(46세대)","tel":"1600-0977"},
{"name":"화서역 파크 푸르지오","location":"경기도 수원시(군)","count":21,"date":"2018-04-25","detail":"59A(3), 59B(1), 74A(2), 74B(1), 84A(7), 84B(5), 84C(2)","tel":"1877-8482"},
{"name":"단아루 단양군립 20년 공공임대주택","location":"충북 단양군(군)","count":2,"date":"2018-04-30","detail":"39㎡(1세대), 54㎡(1세대)","tel":"043-210-9142"},
{"name":"인천 도화지구 금강펜테리움 센트럴파크","location":"인천 남구(통합)","count":47,"date":"2018-04-30","detail":"59A(32), 74A(9), 84A(6)","tel":"1899-3851"},
{"name":"의왕 더샵캐슬","location":"경기도 의왕시(군)","count":5,"date":"2018-05-02","detail":"59A(1), 84A(2), 84B(2)","tel":"031-429-7990"},
{"name":"달서 센트럴 더샵","location":"대구 달서구(군)","count":6,"date":"2018-05-02","detail":"59(3), 72(3)","tel":"053-555-0789"},
{"name":"강릉 유천 공공주택지구 S1블록","location":"강원도 강릉(군)","count":6,"date":"2018-05-09","detail":"84A 2세대, 84B 4세대","tel":"1644-7144"},
{"name":"신길파크자이","location":"서울시 영등포구(군)","count":4,"date":"2018-05-09","detail":"84B 4세대","tel":"1644-3278"},
{"name":"예천2지구 중흥 S-클래스","location":"충청남도 서산시(군)","count":4,"date":"2018-05-09","detail":"84B 4세대","tel":"041-669-8500"},
{"name":"힐스테이트 범어","location":"대구시 수성구(군)","count":3,"date":"2018-05-09","detail":"84 3세대","tel":"053-741-0074"},
{"name":"화명 센트럴 푸르지오","location":"부산시 북구(군)","count":5,"date":"2018-05-09","detail":"59B 1세대, 84A 1세대, 84B 2세대, 84C 1세대","tel":"1877-7022"},
{"name":"안양 센트럴 헤센 2차","location":"경기도 안양(군)","count":3,"date":"2018-05-09","detail":"62type 1세대, 66type 2세대","tel":"031-427-3450"},
{"name":"평촌 어바인 퍼스트","location":"경기도 안양시(군)","count":14,"date":"2018-05-14","detail":"39(3), 59A(4), 59B(2), 84A(4), 84B(1)","tel":"1661-6075"},
{"name":"한국아델리움 위너스","location":"전남 무안군(군)","count":3,"date":"2018-05-14","detail":"84B(1), 84C(2)","tel":"062-670-0272"},
{"name":"가야누리애 범천 더 센트리즈","location":"부산 진구(군)","count":5,"date":"2018-05-14","detail":"60A(1), 50C(4)","tel":"055-333-4786"},
{"name":"오산대역 더샵 센트럴시티","location":"경기도 오산시(군)","count":13,"date":"2018-05-14","detail":"67㎡(2), 77㎡(4), 84A㎡(2), 84㎡B(5)","tel":"031-375-0033"},
{"name":"연경 A1 10년공공임대 아파트","location":"대구 북구(군)","count":2,"date":"2018-05-14","detail":"59A(2세대)","tel":"053-637-6004"},
{"name":"대구안심 시티프라디움","location":"대구광역시 동구(군)","count":9,"date":"2018-05-14","detail":"84.98A(9)","tel":"1544-1152"},
{"name":"익산 마동 코아루 디펠리체","location":"전북 익산(군)","count":21,"date":"2018-05-16","detail":"75A㎡(15), 75B㎡(6)","tel":"1899-6068"},
{"name":"안양시엘포레자이","location":"경기도 안양(군)","count":18,"date":"2018-05-16","detail":"39(1), 45A(1), 45B(1), 49B(1), 59A(2), 59B(1), 59C(1),  73A(2), 73B(2), 73C(1), 84A(1), 84B(1), 84C(3)","tel":"1544-5532"},
{"name":"홍제역 효성해링턴 플레이스","location":"서울 서대문구(군)","count":8,"date":"2018-05-16","detail":"59A(1), 84A(2), 84B(4), 84C(1)","tel":"02-3210-1112"},
{"name":"시흥은계 S-4블록(공공분양)","location":"경기도 시흥시(군)","count":2,"date":"2018-05-17","detail":"74(1), 84(1)","tel":"02-2026-9476"},
{"name":"힐스테이트 신촌","location":"서울 서대문구(군)","count":9,"date":"2018-05-23","detail":"84A(2), 84B(1), 84C(2), 84D(2), 84E(2)","tel":"02-2058-1088"},
{"name":"힐스테이트 금정역","location":"경기도 군포시(군)","count":8,"date":"2018-05-23","detail":"72(2), 73(2), 84A(1), 84B(3)","tel":"1644-0048"},
{"name":"래미안 목동아델리체","location":"서울 양천구(군)","count":18,"date":"2018-05-24","detail":"59A(4), 59C(1), 84A(4), 84B(2), 84D(3), 84E(1), 84F(3)","tel":"02-2062-4321"},
{"name":"의정부 고산 대방노블랜드","location":"경기도 의정부시(군)","count":17,"date":"2018-05-24","detail":"74A(2), 73B(3), 74C(4), 84A(1), 84B(3), 84C(4)","tel":"1688-7733"},
{"name":"양산 평산 코아루 2차","location":"경상남도 양산시(군)","count":7,"date":"2018-05-24","detail":"70(1세대), 84A(4세대), 84B(2세대)","tel":"055-363-3433"},
{"name":"캐슬&파밀리에 City 2차","location":"경기도 김포시(군)","count":20,"date":"2018-05-24","detail":"74㎡(2), 80㎡(4), 84㎡A(9), 84㎡B(3), 84㎡C(2)","tel":"1899-2002"},
{"name":"수성범어 에일린의 뜰","location":"대구 수성구(군)","count":6,"date":"2018-05-24","detail":"70(2), 72(1), 84A(1), 84B(2)","tel":"053-749-3500"},
{"name":"갑천3블록 트리풀시티","location":"대전 서구(군)","count":14,"date":"2018-05-29","detail":"84A(5), 84B(1), 84C(8)","tel":"042-530-9152"},
{"name":"의정부고산 공공임대주택리츠","location":"경기도 의정부시(군)","count":2,"date":"2018-05-29","detail":"51(1세대), 59B(1세대)","tel":"02-2017-4379"},
{"name":"영암 현대삼호 2차","location":"전남 영암군(군)","count":14,"date":"2018-05-31","detail":"50.9300(8세대), 59.7500(6세대)","tel":"061-460-4849"},
{"name":"동작 협성휴포레 시그니처","location":"서울 동작구(통합)","count":29,"date":"2018-05-31","detail":"84A(12세대), 84B(14세대), 84C(3세대)","tel":"02-841-0088"},
{"name":"사하구 부평지구 중흥 S-클래스","location":"부산 사하구(군)","count":16,"date":"2018-05-31","detail":"59A(7세대), 59B(1세대), 59C(1세대), 84A(4세대), 84B(세대)","tel":"051-292-6600"},
{"name":"동래 3차 SK VIEW","location":"부산 동래구(군)","count":1,"date":"2018-06-05","detail":"84C(1세대)","tel":"051-761-0777"},
{"name":"대구연경 아이파크","location":"대구 동구(군)","count":9,"date":"2018-06-05","detail":"84A(7세대), 84B(2세대)","tel":"053-981-3456"},
{"name":"e편한세상 영천","location":"경남 영천(군)","count":30,"date":"2018-06-05","detail":"1BL :총15세대/ 74A(2세대), 74B(1세대), 84A(9세대), 84B(2세대), 84C(1세대) / 2BL :총15세대/ 74A(2세대), 74B(1세대), 84A(9세대), 84B(3세대)","tel":"1670-7667"},
{"name":"구포3구역 신구포 반도유보라","location":"부산 북구(군)","count":4,"date":"2018-06-07","detail":"59A(1세대), 74(1세대), 84A(1세대), 84B(1세대)","tel":"1800-0355"},
{"name":"당진 수청 한라비발디 캠퍼스","location":"충남 당진시(군)","count":17,"date":"2018-06-07","detail":"59A(6세대), 59B(2세대), 74(4세대), 84A(4세대), 84B(1세대)","tel":"1899-8830"},
{"name":"분당 더샵 파크리버","location":"경기도 성남시(군)","count":3,"date":"2018-06-07","detail":"59A(1세대), 84B(1세대), 84E(1세대)","tel":"031-539-0600"},
{"name":"사상역 경보센트리안 아파트","location":"부산 사상구(군)","count":5,"date":"2018-06-22","detail":"66(1세대), 64(1세대), 63(1세대), 46(1세대), 47 (1세대)","tel":"051-325-2222"},
{"name":"정읍 상동 제일오투그란데","location":"전북 정읍시(군)","count":1,"date":"2018-06-22","detail":"84(1세대)","tel":"1522-3382"},
{"name":"전주 인후더샵","location":"전북 전주시(통합)","count":95,"date":"2018-06-22","detail":"59A(21세대), 76A(55세대), 76B(19세대)","tel":"063-245-9300"},
{"name":"여주 아이파크","location":"경기도 여주(군)","count":11,"date":"2018-06-22","detail":"84A(8세대), 84B(3세대)","tel":"031-882-8577"},
{"name":"힐스테이트 지제역 1BL","location":"경기도 평택시(군)","count":2,"date":"2018-06-22","detail":"84A(1세대), 84B(1세대)","tel":"1599-7312"},
{"name":"앞산 비스타동원","location":"대구광역시 남구(군)","count":5,"date":"2018-06-22","detail":"59(1세대), 84A(3세대), 84C(1세대)","tel":"1899-1139"},
{"name":"군산신역세권 B3블록 10년 공공임대리츠","location":"전북 군산시(군)","count":2,"date":"2018-06-22","detail":"84A(2세대)","tel":"063-461-0992"},
{"name":"동탄(2) 공공임대주택리츠","location":"경기도 화성시(군)","count":5,"date":"2018-06-22","detail":"A63블록(51A-1세대, 59A-2세대) / A81블록(59A-1세대, 74A-1세대)","tel":"031-8077-7990"},
{"name":"수성알파시티청아람","location":"대구 수성구(군)","count":6,"date":"2018-06-29","detail":"59A(3세대), 59B(1세대), 84A(2세대)","tel":"053-350-0326"},
{"name":"철산 센트럴 푸르지오","location":"경기도 광명시(군)","count":3,"date":"2018-07-02","detail":"59A(1세대), 59B(1세대), 84B(1세대)","tel":"031-441-0323"},
{"name":"동탄역 유림 노르웨이숲","location":"경기도 화성시(군)","count":4,"date":"2018-07-02","detail":"71(1세대), 84A(2세대), 84B(1세대)","tel":"1600-0668"},
{"name":"광주 백운 코아루 아팰리스힐","location":"광주광역시 남구(군)","count":2,"date":"2018-07-02","detail":"71A(2세대)","tel":"062-362-8889"},
{"name":"장위뉴타운 꿈의숲 아이파크","location":"서울 성북구(군)","count":21,"date":"2018-07-02","detail":"59A( 4세대), 59B( 2세대), 76( 1세대), 84A( 8세대), 84B( 6세대)","tel":"02-985-1711"},
{"name":"힐스테이트 중동","location":"경기도 부천시(군)","count":16,"date":"2018-07-10","detail":"84A( 4세대), 84B( 4세대), 84C( 4세대), 84D( 4세대)","tel":"032-324-4999"},
{"name":"힐스테이트 속초","location":"강원도 속초시(군)","count":4,"date":"2018-07-10","detail":"78A( 1세대), 84A( 1세대), 84B( 1세대), 84C( 1세대)","tel":"033-631-1136"},
{"name":"남산 롯데캐슬 센트럴스카이","location":"대구 남산동(군)","count":9,"date":"2018-07-12","detail":"59A( 1세대), 84A( 5세대), 84B( 3세대)","tel":"1577-7236"},
{"name":"가경자이","location":"충북 청주시(군)","count":5,"date":"2018-07-12","detail":"75( 3세대), 84A( 1세대), 84B( 1세대)","tel":"1661-0585"},
{"name":"고성 천진 한신더휴 오션프레스티지","location":"강원도 고성군(군)","count":13,"date":"2018-07-12","detail":"75A( 3세대), 75B( 1세대), 84A( 6세대), 84B( 3세대)","tel":"033-637-0070"},
{"name":"노원 꿈에그린","location":"서울시 노원구(군)","count":1,"date":"2018-07-12","detail":"84C( 1세대)","tel":"1544-3174"},
{"name":"성남마크뷰","location":"경기도 성남시(군)","count":2,"date":"2018-07-12","detail":"40( 1세대), 50A( 1세대)","tel":"031-748-9341"},
{"name":"新본리 동서프라임S","location":"대구 달서구(군)","count":1,"date":"2018-07-16","detail":"84( 1세대)","tel":"053-720-0011"},
{"name":"대구역 한라하우젠트 센텀","location":"대구광역시 북구(군)","count":3,"date":"2018-07-20","detail":"84A( 1세대), 84B( 2세대)","tel":"053-756-1500"},
{"name":"제일 오투그란데 김제 신풍동","location":"전라북도 김제시(군)","count":2,"date":"2018-07-20","detail":"84( 2세대)","tel":"1522-3382"},
{"name":"약사지구 모아엘가 센텀뷰","location":"강원도 춘천시(군)","count":9,"date":"2018-07-26","detail":"59(5세대), 73(2세대), 84A(2세대)","tel":"033-253-0567"},
{"name":"동래 래미안 아이파크","location":"부산 동래구(군)","count":24,"date":"2018-07-31","detail":"59A( 3세대), 59B( 1세대), 75A( 4세대), 75B( 1세대), 84A( 8세대), 84B( 4세대), 84D( 3세대)","tel":"051-555-3690"},
{"name":"힐스테이트 연산","location":"부산시 연제구(군)","count":6,"date":"2018-08-03","detail":"59( 1세대), 74( 1세대), 84A( 2세대), 84C( 2세대)","tel":"1811-9333"},
{"name":"속초 서희스타힐스 더베이 2차","location":"강원도 속초시(군)","count":3,"date":"2018-08-09","detail":"77A( 1세대), 77B( 1세대), 84( 1세대)","tel":"02-563-4884"},
{"name":"부산 동래 더샵","location":"부산시 동래구(군)","count":13,"date":"2018-08-17","detail":"74( 2세대), 84A( 1세대), 84B( 3세대), 84C( 5세대). 84D( 2세대)","tel":"1566-0998"},
{"name":"다사역 삼정그린코아 더베스트","location":"대구시 달성군(군)","count":4,"date":"2018-08-17","detail":"59( 2세대), 84( 2세대)","tel":"1670-2900"},
{"name":"안심역 삼정그린코아 더베스트","location":"대구시 동구(군)","count":5,"date":"2018-08-17","detail":"59B( 1세대), 59C( 1세대), 84( 3세대)","tel":"053-964-6750"},
{"name":"리젠시빌 란트 더웰","location":"경기도 이천시(군)","count":8,"date":"2018-08-17","detail":"57A( 6세대), 57B( 2세대)","tel":"031-631-0061"},
{"name":"구미 문성레이크자이","location":"경북 구미시(군)","count":16,"date":"2018-08-21","detail":"74A( 6세대), 74B( 1세대), 84A( 6세대), 84B( 3세대)","tel":"054-442-8600"},
{"name":"파주운정3 A4블록(10년공공임대)","location":"경기도 파주시(군)","count":2,"date":"2018-08-21","detail":"59A( 1세대), 84A( 1세대)","tel":"1600-1004"},
{"name":"힐스테이트 범어 센트럴","location":"대구 수성구(군)","count":3,"date":"2018-08-23","detail":"84A( 2세대), 84C( 1세대)","tel":"1811-9001"},
{"name":"다산 해모로","location":"경기도 남양주시(군)","count":5,"date":"2018-08-23","detail":"39( 1세대), 59A( 2세대), 59B( 1세대), 84( 1세대)","tel":"031-551-6280"},
{"name":"검단오류역 우방아이유쉘","location":"인천시 서구(군)","count":5,"date":"2018-08-04","detail":"66A( 3세대). 66C ( 1세대), 66D( 1세대)","tel":"032-564-5678"},
{"name":"부산 이진 젠시티","location":"부산 부산진구(군)","count":5,"date":"2018-08-27","detail":"74A ( 2세대), 73B( 1세대), 84C( 1세대), 84D( 1세대)","tel":"051-892-0001"},
{"name":"하남감일 B5블록 10년공공임대","location":"경기도 하남시(군)","count":1,"date":"2018-08-28","detail":"84A ( 1세대)","tel":"031-790-7867"},
{"name":"대구 수성 골드클래스","location":"대구시 수성구(군)","count":7,"date":"2018-08-28","detail":"84A ( 5세대), 84B( 2세대)","tel":"053-710-7990"},
{"name":"안양 KCC 스위첸","location":"경기도 안양시(군)","count":3,"date":"2018-08-29","detail":"59A ( 2세대), 59B( 1세대)","tel":"1600-4520"},
{"name":"대전 도룡 포레 미소지움","location":"대전시 유성구(군)","count":2,"date":"2018-08-30","detail":"61B ( 1세대), 84A ( 1세대)","tel":"042-487-2221"},
{"name":"화성향남 사랑으로 부영아파트(10년 공공임대)","location":"경기도 화성시(군)","count":9,"date":"2018-09-03","detail":"60 ( 2세대), 84A ( 5세대), 84B( 1세대), 84C( 1세대)","tel":"031-8047-6285"},
{"name":"진천역 라온프라이빗 센텀","location":"대구시 달서구(군)","count":10,"date":"2018-09-03","detail":"68A ( 4세대), 68B( 2세대), 84A( 3세대), 84B( 1세대)","tel":"1833-3848"},
{"name":"화성남양뉴타운 B-6블록 10년 공공임대","location":"경기도 화성시(군)","count":1,"date":"2018-09-03","detail":"69A ( 1세대)","tel":"031-250-4980"},
{"name":"이천시 라온프라이빗","location":"경기도 이천시(군)","count":8,"date":"2018-09-04","detail":"75 ( 3세대), 84A( 3세대), 84B ( 1세대), 84C( 1세대)","tel":"031-633-8884"},
{"name":"영암 현대삼호 4차 아파트","location":"전라남도 영암군(군)","count":4,"date":"2018-09-04","detail":"49 ( 4세대)","tel":"061-460-4803"},
{"name":"목포 하당지구 중흥 S-클래스","location":"전라남도 목포시(군)","count":11,"date":"2018-09-04","detail":"84A ( 7세대), 84B ( 4세대)","tel":"061-282-5054"}]