[{
    "idx": 1,
    "name": "태릉",
    "location": "서울시 노원구",
    "scale": "18홀",
    "tel": "프론트 : 02-970-7355 / 예약실 : 02-970-7307",
    "link": "www.welfare.mil.kr",
    "lat": 37.6541917,
    "lng": 127.05679299999997
}, {
    "idx": 2,
    "name": "남수원",
    "location": "경기 화성시",
    "scale": "18홀",
    "tel": "프론트 : 031-229-9244 / 예약실 : 031-229-9300",
    "link": "www.welfare.mil.kr",
    "lat": 37.1994932,
    "lng": 126.83118869999998
}, {
    "idx": 3,
    "name": "동여주",
    "location": "경기 여주시",
    "scale": "18홀",
    "tel": "프론트 : 031-887-8421 / 예약실 : 031-887-8420",
    "link": "www.welfare.mil.kr",
    "lat": 37.2980237,
    "lng": 127.63716279999994
}, {
    "idx": 4,
    "name": "처인",
    "location": "경기 용인시 처인구",
    "scale": "18홀",
    "tel": "프론트 : 031-330-8200 / 예약실 : 031-330-8211",
    "link": "www.welfare.mil.kr",
    "lat": 37.2344406,
    "lng": 127.20134580000001
}, {
    "idx": 5,
    "name": "계룡대(계룡코스)",
    "location": "충남 계룡시",
    "scale": "18홀",
    "tel": "프론트 : 042-550-6843 / 예약실 : 042-550-6841~2",
    "link": "www.armywelfaregolf.mil.kr",
    "lat": 36.2745577,
    "lng": 127.24858960000006
}, {
    "idx": 6,
    "name": "계룡대(구룡코스)",
    "location": "충남 계룡시",
    "scale": "18홀",
    "tel": "프론트 : 042-550-7655 / 예약실 : 042-550-6841~2",
    "link": "www.armywelfaregolf.mil.kr",
    "lat": 36.2745577,
    "lng": 127.24858960000006
}, {
    "idx": 7,
    "name": "자운대",
    "location": "대전시 유성구",
    "scale": "9홀",
    "tel": "프론트 : 042-868-6500,6503 / 예약실 : 042-868-6514~5",
    "link": "www.armywelfaregolf.mil.kr",
    "lat": 36.362216,
    "lng": 127.35613290000003
}, {
    "idx": 8,
    "name": "남성대",
    "location": "충북 영동군",
    "scale": "9홀",
    "tel": "프론트 : 043-745-1703 / 예약실 : 043-745-1700",
    "link": "www.armywelfaregolf.mil.kr",
    "lat": 36.1750231,
    "lng": 127.7834302
}, {
    "idx": 9,
    "name": "창공대",
    "location": "충남 논산시",
    "scale": "9홀",
    "tel": "프론트 : 041-730-6802 / 예약실 : 041-730-6801",
    "link": "www.armywelfaregolf.mil.kr",
    "lat": 36.1870656,
    "lng": 127.09874530000002
}, {
    "idx": 10,
    "name": "함안대",
    "location": "경남 함안군",
    "scale": "9홀",
    "tel": "프론트 : 055-585-0761 / 예약실 : 055-585-0760",
    "link": "www.armywelfaregolf.mil.kr",
    "lat": 35.2725591,
    "lng": 128.40647969999998
}, {
    "idx": 11,
    "name": "선봉대",
    "location": "경기 용인시 처인구",
    "scale": "9홀",
    "tel": "프론트 : 031-331-6734 / 예약실 : 031-331-6730~1",
    "link": "www.armywelfaregolf.mil.kr",
    "lat": 37.2344406,
    "lng": 127.20134580000001
}, {
    "idx": 12,
    "name": "무열대",
    "location": "대구시 수성구",
    "scale": "9홀",
    "tel": "프론트 : 053-750-6736 / 예약실 : 053-750-6733",
    "link": "www.armywelfaregolf.mil.kr",
    "lat": 35.8582435,
    "lng": 128.63060859999996
}, {
    "idx": 13,
    "name": "비승대",
    "location": "경기 이천시",
    "scale": "9홀",
    "tel": "프론트 : 031-644-5582 / 예약실 : 031-644-5581",
    "link": "www.armywelfaregolf.mil.kr",
    "lat": 37.2719952,
    "lng": 127.43482210000002
}, {
    "idx": 14,
    "name": "사자",
    "location": "경기 이천시",
    "scale": "9홀",
    "tel": "프론트/예약실 : 031-632-3700",
    "link": "www.armywelfaregolf.mil.kr",
    "lat": 37.2719952,
    "lng": 127.43482210000002
}, {
    "idx": 15,
    "name": "한산대(진해)",
    "location": "경남 창원시",
    "scale": "15홀",
    "tel": "프론트 : 055-549-4373 / 예약실 : 055-546-3080, 055-549-4371",
    "link": "welfare.navy.mil.kr",
    "lat": 35.2204313,
    "lng": 128.68048290000002
}, {
    "idx": 16,
    "name": "만포대(평택)",
    "location": "경기 평택시",
    "scale": "18홀",
    "tel": "프론트 : 031-685-1520,1522 / 예약실 : 031-685-1521",
    "link": "welfare.navy.mil.kr",
    "lat": 36.9921075,
    "lng": 127.11294509999993
}, {
    "idx": 17,
    "name": "충무대(포항)",
    "location": "경북 포항시",
    "scale": "9홀",
    "tel": "프론트 : 054-290-2603 / 예약실 : 054-290-2601",
    "link": "welfare.navy.mil.kr",
    "lat": 36.0190178,
    "lng": 129.34348079999995
}, {
    "idx": 18,
    "name": "덕산대(발안)",
    "location": "경기 화성시",
    "scale": "9홀",
    "tel": "프론트 : 031-8012-2716 / 예약실 : 031-8012-2711~2",
    "link": "welfare.navy.mil.kr",
    "lat": 37.1994932,
    "lng": 126.83118869999998
}, {
    "idx": 19,
    "name": "낙산대(동해)",
    "location": "강원 동해시",
    "scale": "9홀",
    "tel": "프론트 : 033-539-6764 / 예약실 : 033-539-6762~3",
    "link": "welfare.navy.mil.kr",
    "lat": 37.5247192,
    "lng": 129.11429150000004
}, {
    "idx": 20,
    "name": "광주",
    "location": "광주시 광산구",
    "scale": "9홀",
    "tel": "프론트: 062-940-4974/예약실 : 062-941-8877",
    "link": "www.airforce.mil.kr",
    "lat": 35.1394638,
    "lng": 126.79371830000002
}, {
    "idx": 21,
    "name": "사천",
    "location": "경남 사천시",
    "scale": "9홀",
    "tel": "프론트 : 055-850-5804 / 예약실 : 055-852-3301",
    "link": "www.airforce.mil.kr",
    "lat": 35.0037788,
    "lng": 128.06418499999995
}, {
    "idx": 22,
    "name": "김해",
    "location": "부산시 강서구",
    "scale": "9홀",
    "tel": "프론트 : 051-973-3083 / 예약실 : 051-973-3085",
    "link": "www.airforce.mil.kr",
    "lat": 35.2122157,
    "lng": 128.98056659999997
}, {
    "idx": 23,
    "name": "원주(신)/(구)",
    "location": "강원 원주시",
    "scale": "9홀",
    "tel": "프론트 : 033-730-5810 / 예약실 : 033-747-4139",
    "link": "www.airforce.mil.kr",
    "lat": 37.3422186,
    "lng": 127.92016209999997
}, {
    "idx": 24,
    "name": "수원",
    "location": "경기 수원시",
    "scale": "9홀",
    "tel": "프론트 : 031-220-4595 / 예약실 : 031-232-1482",
    "link": "www.airforce.mil.kr",
    "lat": 37.2635727,
    "lng": 127.02860090000001
}, {
    "idx": 25,
    "name": "대구",
    "location": "대구시 동구",
    "scale": "9홀",
    "tel": "프론트 : 053-989-3769/ 예약실 : 053-985-2536",
    "link": "www.airforce.mil.kr",
    "lat": 35.8866012,
    "lng": 128.6353024
}, {
    "idx": 26,
    "name": "성남",
    "location": "경기 성남시 수정구",
    "scale": "9홀",
    "tel": "프론트 : 031-720-3592 / 예약실 : 031-720-3590",
    "link": "www.airforce.mil.kr",
    "lat": 37.4502462,
    "lng": 127.14554020000003
}, {
    "idx": 27,
    "name": "예천",
    "location": "경북 예천군",
    "scale": "9홀",
    "tel": "프론트 : 054-650-5782 / 예약실 : 054-653-5162",
    "link": "www.airforce.mil.kr",
    "lat": 36.6577004,
    "lng": 128.4528808
}, {
    "idx": 28,
    "name": "청주",
    "location": "충북 청원군",
    "scale": "9홀",
    "tel": "프론트 : 043-210-2451 / 예약실 : 043-214-4016",
    "link": "www.airforce.mil.kr",
    "lat": 36.5573058,
    "lng": 127.53213410000001
}, {
    "idx": 29,
    "name": "강릉",
    "location": "강원 강릉시",
    "scale": "9홀",
    "tel": "프론트 : 033-649-3853 / 예약실 : 033-645-8252",
    "link": "www.airforce.mil.kr",
    "lat": 37.751853,
    "lng": 128.87605740000004
}, {
    "idx": 30,
    "name": "충주",
    "location": "충북 충주시",
    "scale": "9홀",
    "tel": "프론트/예약실 : 043-847-1268",
    "link": "www.airforce.mil.kr",
    "lat": 36.9910113,
    "lng": 127.92594970000005
}, {
    "idx": 31,
    "name": "서산",
    "location": "충남 서산시",
    "scale": "18홀",
    "tel": "프론트/예약실 : 041-688-9898",
    "link": "www.airforce.mil.kr",
    "lat": 36.7844993,
    "lng": 126.45031689999996
}, {
    "idx": 32,
    "name": "성무대",
    "location": "충북 청원군",
    "scale": "9홀",
    "tel": "프론트 : 043-290-5824 / 예약실 : 043-298-4825",
    "link": "www.airforce.mil.kr",
    "lat": 36.5573058,
    "lng": 127.53213410000001
}, {
    "idx": 33,
    "name": "오   산",
    "location": "경기 평택시",
    "scale": "9홀",
    "tel": "프론트 : 031-669-2923 / 예약실 : 031-669-2929",
    "link": "www.airforce.mil.kr",
    "lat": 36.9921075,
    "lng": 127.11294509999993
}]