[{
    "row": 1,
    "name": "비전IPARK평택",
    "location": "경기 평택시",
    "count": 49,
    "date": "2016-02-05",
    "details": "75A(19)/84A(23)/84B(7)",
    "tel": "031-692-7600"
  },
  {
    "row": 2,
    "name": "모아엘가 에듀파크",
    "location": "경북 안동시",
    "count": 58,
    "date": "2016-02-15",
    "details": "84A(43)/84B(15)",
    "tel": "054-842-4334"
  },
  {
    "row": 3,
    "name": "미사강변도시",
    "location": "경기 하남시",
    "count": 4,
    "date": "2016-02-18",
    "details": "69(1)/84(3)",
    "tel": "1522-0027"
  },
  {
    "row": 4,
    "name": "래미안 구의 파크스위트",
    "location": "서울시 광진구",
    "count": 18,
    "date": "2016-02-18",
    "details": "59A(7)/59B(1)/59C(1)/75A(1)/75B(1)/75C(1)/84A(4)/84B(2)",
    "tel": "02-451-3370"
  },
  {
    "row": 5,
    "name": "센트럴 웰가",
    "location": "경남 진주시",
    "count": 112,
    "date": "2016-02-22",
    "details": "59A-1(6)/59A-2(3)/59A-3(3)/75B-1(6)/75B-2(8)/75B-3(3)/84C-1(43)/84C-2(18)/84C-3(19)/84C-4(3)",
    "tel": "055-742-0002"
  },
  {
    "row": 6,
    "name": "대구혁신도시",
    "location": "대구 동구",
    "count": 2,
    "date": "2016-03-16",
    "details": "51(1)/59A(1)",
    "tel": "053-603-2556"
  },
  {
    "row": 7,
    "name": "은평스카이뷰자이",
    "location": "서울 은평구",
    "count": 36,
    "date": "2016-03-11",
    "details": "84A(18)/84B(18)",
    "tel": "1644-0042"
  },
  {
    "row": 8,
    "name": "래미안 블레스티지",
    "location": "서울 강남구",
    "count": 5,
    "date": "2016-03-16",
    "details": "49A(1)/59A(1)/59B(1)/84B(1)/84C(1)",
    "tel": "02-400-3559"
  },
  {
    "row": 9,
    "name": "e편한세상 테라스오포",
    "location": "경기 광주시",
    "count": 8,
    "date": "2016-03-08",
    "details": "2BL 84A(1)/3BL 84A(4)/3BL 84B(1)/4BL 84A(2)",
    "tel": "031-711-7377"
  },
  {
    "row": 10,
    "name": "수목원 제일풍경채",
    "location": "대구 달서구",
    "count": 63,
    "date": "2016-03-14",
    "details": "72(15)/78(13)/83(35)",
    "tel": "1522-1163"
  },
  {
    "row": 11,
    "name": "에코시티더샵2차",
    "location": "전북 전주시",
    "count": 38,
    "date": "2016-03-09",
    "details": "84A(21)/84B(5)/84C(12)",
    "tel": "1661-0074"
  },
  {
    "row": 12,
    "name": "대방노블랜드1차",
    "location": "경남 진주시",
    "count": 19,
    "date": "2016-03-16",
    "details": "84A(11)/84B(8)",
    "tel": "1688-7733"
  },
  {
    "row": 13,
    "name": "대원 꿈에그린",
    "location": "경남 창원시",
    "count": 7,
    "date": "2016-03-14",
    "details": "84bB(4)/84D(3)",
    "tel": "055-266-2900"
  },
  {
    "row": 14,
    "name": "의정부민락2 B9블록",
    "location": "경기 의정부시",
    "count": 4,
    "date": "2016-04-07",
    "details": "74A(2)/74B(1)/84A(1)",
    "tel": "02-3416-3618"
  },
  {
    "row": 15,
    "name": "e편한세상 태재",
    "location": "경기 광주시",
    "count": 58,
    "date": "2016-03-14",
    "details": "74(14)/84(44)",
    "tel": "1800-9898"
  },
  {
    "row": 16,
    "name": "제주삼화 1-1블록",
    "location": "제주 제주시",
    "count": 1,
    "date": "2016-03-23",
    "details": "59(1)",
    "tel": "064-720-1078"
  },
  {
    "row": 17,
    "name": "전주만성 A1블록",
    "location": "전북 전주시",
    "count": 4,
    "date": "2016-04-12",
    "details": "59A(3)/59A1(1)",
    "tel": "063-230-6107"
  },
  {
    "row": 18,
    "name": "포항 동부이끌림",
    "location": "경북 포항시",
    "count": 9,
    "date": "2016-03-16",
    "details": "80(4)/84(5)",
    "tel": "054-272-2800"
  },
  {
    "row": 19,
    "name": "우방아이유쉘",
    "location": "인천 서구",
    "count": 38,
    "date": "2016-03-15",
    "details": "59A(21)/59B(2)/84A(3)/84B(12)",
    "tel": "032-542-7000"
  },
  {
    "row": 20,
    "name": "세종 중흥 S-클래스",
    "location": "세종 대평동",
    "count": 11,
    "date": "2016-03-31",
    "details": "84A(10)/84B(1)",
    "tel": "1577-2264"
  },
  {
    "row": 21,
    "name": "운암2차 남양휴튼",
    "location": "전남 광주시",
    "count": 17,
    "date": "2016-03-22",
    "details": "59(4)/84A(9)/84B(4)",
    "tel": "02-2225-6221"
  },
  {
    "row": 22,
    "name": "시흥 배곧신도시",
    "location": "경기 시흥시",
    "count": 120,
    "date": "2016-03-25",
    "details": "75(33)/84(72)/84(15)",
    "tel": "031-488-8600"
  },
  {
    "row": 23,
    "name": "경남혁신 A10블록",
    "location": "경남 진주시",
    "count": 1,
    "date": "2016-04-07",
    "details": "84A(1)",
    "tel": "055-210-8400"
  },
  {
    "row": 24,
    "name": "홍제원 아이파크",
    "location": "서울 서대문구",
    "count": 28,
    "date": "2016-03-30",
    "details": "84A(10)/84B(10)/84C(3)/84D(1)/84E(4)",
    "tel": "02-538-3615"
  },
  {
    "row": 25,
    "name": "두진하트리움시티",
    "location": "강원 원주시",
    "count": 29,
    "date": "2016-03-31",
    "details": "59A(5)/59B(5)/59C(5)/84A(7)/84B(7)",
    "tel": "043-288-3001"
  },
  {
    "row": 26,
    "name": "신원아침신도시",
    "location": "경기 이천시",
    "count": 29,
    "date": "2016-04-01",
    "details": "59A(8)/59B(2)/74(10)/84A(8)/84B(1)",
    "tel": "02-6908-7151"
  },
  {
    "row": 27,
    "name": "대구금호 B-1블록",
    "location": "대구 금호동",
    "count": 6,
    "date": "2016-04-20",
    "details": "74A(1)/74B(1)/84A(2)/84B(1)/84C(1)",
    "tel": "053-643-2003"
  },
  {
    "row": 28,
    "name": "신문덕 코아루",
    "location": "경북 포항시",
    "count": 63,
    "date": "2016-04-01",
    "details": "69A(11)/69B(6)/69C(17)/84(29)",
    "tel": "1833-5001"
  },
  {
    "row": 29,
    "name": "킨텍스 원시티",
    "location": "경기 고양시",
    "count": 179,
    "date": "2016-04-11",
    "details": "84A(54)/84B(77)/84C(48)",
    "tel": "02-2154-1114"
  },
  {
    "row": 30,
    "name": "진영 한림풀에버",
    "location": "경남 진해시",
    "count": 57,
    "date": "2016-04-07",
    "details": "1단지59(9)/74A(10)/74B(15)/2단지59(3)/74B(6)/84(14)",
    "tel": "055-312-0100"
  },
  {
    "row": 31,
    "name": "시흥목감 B3블록",
    "location": "경기 시흥시",
    "count": 2,
    "date": "2016-04-14",
    "details": "84A(1)/84A1(1)",
    "tel": "02-2026-9440"
  },
  {
    "row": 32,
    "name": "휴리움아파트",
    "location": "대전 서구",
    "count": 28,
    "date": "2016-04-08",
    "details": "51(12)/57(6)/59(5)/65(5)",
    "tel": "042-528-1600"
  },
  {
    "row": 33,
    "name": "인천가정지구 8블록",
    "location": "인천 서구",
    "count": 1,
    "date": "2016-04-14",
    "details": "49(1)",
    "tel": "032-890-5489"
  },
  {
    "row": 34,
    "name": "양우내안애더퍼스트",
    "location": "울산 울주군",
    "count": 25,
    "date": "2016-04-15",
    "details": "63A(8)/72A(5)/72B(4)/72B-1(1)/72C(2)/72C-1(1)/84A(4)",
    "tel": "02-2679-5200"
  },
  {
    "row": 35,
    "name": "흥화하브",
    "location": "충남 공주시",
    "count": 6,
    "date": "2016-04-21",
    "details": "71(1)/84A(4)/84B(1)",
    "tel": "041-881-0777"
  },
  {
    "row": 36,
    "name": "민락2지구 우미린",
    "location": "경기 의정부시",
    "count": 73,
    "date": "2016-04-20",
    "details": "84A(4)/84B(13)/84C(17)/84D(3)",
    "tel": "1588-9950"
  },
  {
    "row": 37,
    "name": "반도유보라6차",
    "location": "경기 김포시",
    "count": 20,
    "date": "2016-04-21",
    "details": "72(12)/78(8)",
    "tel": "1800-0877"
  },
  {
    "row": 38,
    "name": "꿈에그린",
    "location": "제주 제주시",
    "count": 37,
    "date": "2016-04-22",
    "details": "A2블록(24)/A3블록(13)",
    "tel": "064-723-6903"
  },
  {
    "row": 39,
    "name": "수원호매실 A-7블록",
    "location": "경기 수원시",
    "count": 1,
    "date": "2016-04-27",
    "details": "59A(1)",
    "tel": "1600-1004"
  },
  {
    "row": 40,
    "name": "힐스테이트 리버파크",
    "location": "광주 광산구",
    "count": 92,
    "date": "2016-04-27",
    "details": "74A(14)/84A(37)/84A1(10)/84B(7)/84B1(4)/84C(20)",
    "tel": "062-941-1000"
  },
  {
    "row": 41,
    "name": "라온프라이빗2차",
    "location": "대구 수성구",
    "count": 19,
    "date": "2016-04-21",
    "details": "74(3)/84(16)",
    "tel": "053-763-1801"
  },
  {
    "row": 42,
    "name": "태영데시앙",
    "location": "경기 광명시",
    "count": 112,
    "date": "2016-05-06",
    "details": "84A(38)/84B(38)/84C(9)/84D(27)",
    "tel": "02-899-0045"
  },
  {
    "row": 43,
    "name": "비전 지웰푸르지오",
    "location": "경기 평택시",
    "count": 62,
    "date": "2016-05-11",
    "details": "74A(14)/74B(5)/74C(5)/84A(10)/84B(28)",
    "tel": "02-2009-4512"
  },
  {
    "row": 44,
    "name": "e편한세상 양주신도시2차",
    "location": "경기 양주시",
    "count": 117,
    "date": "2016-04-27",
    "details": "66A(9)/66B(5)/66C(5)/74A(14)/74B(7)/74C(7)/84A(34)/84B(18)/84C(18)",
    "tel": "02-2011-7114"
  },
  {
    "row": 45,
    "name": "롯데캐슬 골든힐스",
    "location": "서울 성북구",
    "count": 21,
    "date": "2016-04-27",
    "details": "59A(1)/59C(1)/73(2)/84A(12)/84B(5)",
    "tel": "1833-5080"
  },
  {
    "row": 46,
    "name": "지웰시티 푸르지오",
    "location": "충북 청주시",
    "count": 43,
    "date": "2016-04-25",
    "details": "84A(9)/84B(9)/84C(9)/84D(4)/84E(4)/70A(4)/70B(4)",
    "tel": "043-232-4567"
  },
  {
    "row": 47,
    "name": "힐즈파크 푸르지오",
    "location": "경기 하남시",
    "count": 45,
    "date": "2016-05-16",
    "details": "59(13)/84A(21)/84B(11)",
    "tel": "1600-9056"
  },
  {
    "row": 48,
    "name": "강릉유천 B-1블록",
    "location": "강원 강릉시",
    "count": 1,
    "date": "2016-05-09",
    "details": "74A(1)",
    "tel": "033-610-8971"
  },
  {
    "row": 49,
    "name": "부산명지 B1블록",
    "location": "부산 강서구",
    "count": 3,
    "date": "2016-04-29",
    "details": "74A1(1)/74A2(1)/84B(1)",
    "tel": "051-460-5456"
  },
  {
    "row": 50,
    "name": "행복도시 3-3생활권",
    "location": "세종 소담동",
    "count": 2,
    "date": "2016-05-09",
    "details": "59A(1)/75A(1)",
    "tel": "1600-1004"
  },
  {
    "row": 51,
    "name": "한양수자인 호매실",
    "location": "수원 장안구",
    "count": 21,
    "date": "2016-04-29",
    "details": "84A(20)/84B(1)",
    "tel": "1544-5898"
  },
  {
    "row": 52,
    "name": "청주사천 푸르지오",
    "location": "충북 청주시",
    "count": 71,
    "date": "2016-05-06",
    "details": "59(20)/74(11)/84(40)",
    "tel": "043-211-0729"
  },
  {
    "row": 53,
    "name": "구리갈매 S1블록",
    "location": "경기 구리시",
    "count": 4,
    "date": "2016-05-13",
    "details": "59(2)/74(1)/84(1)",
    "tel": "02-2017-4319"
  },
  {
    "row": 54,
    "name": "KTX역 모아엘가",
    "location": "광주 서구",
    "count": 34,
    "date": "2016-05-03",
    "details": "84(8)/61(15)/62(11)",
    "tel": "062-384-2800"
  },
  {
    "row": 55,
    "name": "동천자이 2차",
    "location": "경기 용인시",
    "count": 82,
    "date": "2016-05-11",
    "details": "59A(7)/59B(3)/77A(12)/77B(6)/77C(3)/84A(32)/84B(2)/84C(9)/84D(6)/84E(2)",
    "tel": "1544-2377"
  },
  {
    "row": 56,
    "name": "모아엘가 더퍼스트",
    "location": "광주 광산구",
    "count": 70,
    "date": "2016-05-24",
    "details": "84A(35)/84B(35)",
    "tel": "062-523-2007"
  },
  {
    "row": 57,
    "name": "쌍촌 엘리체",
    "location": "광주 서구",
    "count": 27,
    "date": "2016-05-09",
    "details": "73(4)/84A(10)/84B(7)/84C(6)",
    "tel": "062-573-4400"
  },
  {
    "row": 58,
    "name": "래미안 센트럴스위트",
    "location": "경기 과천시",
    "count": 5,
    "date": "2016-05-16",
    "details": "59B(1)/84A(2)/84B(1)/84D(1)",
    "tel": "02-504-3303"
  },
  {
    "row": 59,
    "name": "효창KCC스위첸",
    "location": "서울 용산구",
    "count": 12,
    "date": "2016-05-13",
    "details": "59A(1)/59A1(1)/59B(1)/59C(1)/84A(7)/84B(1)",
    "tel": "1833-5529"
  },
  {
    "row": 60,
    "name": "더샵 센트럴시티2차",
    "location": "경기 화성시",
    "count": 22,
    "date": "2016-05-12",
    "details": "74A(6)/74B(4)/84(12)",
    "tel": "031-8015-2992"
  },
  {
    "row": 61,
    "name": "우미린 더 퍼스트",
    "location": "경기 안성시",
    "count": 133,
    "date": "2016-05-18",
    "details": "59A(16)/59B(11)/73A(61)/73B(11)/84A(26)/84B(8)",
    "tel": "031-728-1479"
  },
  {
    "row": 62,
    "name": "서산 동문 꿈에그린",
    "location": "충남 서산시",
    "count": 44,
    "date": "2016-05-13",
    "details": "59(11)/73A(5)/73B(11)/84A(6)/84B(11)",
    "tel": "041-663-7100"
  },
  {
    "row": 63,
    "name": "리젠시빌란트",
    "location": "경기 양주시",
    "count": 51,
    "date": "2016-05-13",
    "details": "53(5)/56(46)",
    "tel": "1522-0013"
  },
  {
    "row": 64,
    "name": "중흥S-클래스",
    "location": "경기 시흥시",
    "count": 80,
    "date": "2016-05-16",
    "details": "72(38)/84(42)",
    "tel": "1522-4403"
  },
  {
    "row": 65,
    "name": "동원로얄듀크1차",
    "location": "경기 화성시",
    "count": 40,
    "date": "2016-05-16",
    "details": "84(8)/73(8)/59(24)",
    "tel": "051-630-4163"
  },
  {
    "row": 66,
    "name": "삼정그린코아더베스트",
    "location": "부산 강서구",
    "count": 10,
    "date": "2016-05-16",
    "details": "84A(5)/84B(5)",
    "tel": "051-207-1155"
  },
  {
    "row": 67,
    "name": "더샵 파크사이드",
    "location": "경기 용인시",
    "count": 38,
    "date": "2016-05-19",
    "details": "75A(12)/75B(3)/85A(20)/85B(3)",
    "tel": "031-776-7900"
  },
  {
    "row": 68,
    "name": "반도유보라 아이비파크",
    "location": "경기 화성시",
    "count": 122,
    "date": "2016-05-20",
    "details": "59A(60)/59B(10)/74(38)/84(14)",
    "tel": "031-221-2221"
  },
  {
    "row": 69,
    "name": "청주테크노폴리스 푸르지오",
    "location": "청주 흥덕구",
    "count": 31,
    "date": "2016-05-16",
    "details": "73(4)/84A(19)/84B(4)/84C(4)",
    "tel": "1599-1034"
  },
  {
    "row": 70,
    "name": "다산신도시 힐스테이트",
    "location": "경기 남양주시",
    "count": 126,
    "date": "2016-05-26",
    "details": "66(22)/84A(81)/84B(15)/84C(8)",
    "tel": "1522-1283"
  },
  {
    "row": 71,
    "name": "롯데캐슬 에듀포레",
    "location": "서울 동작구",
    "count": 22,
    "date": "2016-05-26",
    "details": "59A(8)/84B(2)/84C(2)/84D(6)/84E(4)",
    "tel": "02-814-9142"
  },
  {
    "row": 72,
    "name": "세영리첼",
    "location": "강원 춘천시",
    "count": 16,
    "date": "2016-05-23",
    "details": "72(16)",
    "tel": "033-255-6006"
  },
  {
    "row": 73,
    "name": "롯데캐슬 마에스트로",
    "location": "서울 양천구",
    "count": 26,
    "date": "2016-05-26",
    "details": "59A(6)/59B(9)/84(11)",
    "tel": "1899-2266"
  },
  {
    "row": 74,
    "name": "래미안 루체하임",
    "location": "서울 강남구",
    "count": 8,
    "date": "2016-05-27",
    "details": "59A(4)/59B(1)/71B(1)/84A(1)/84B(1)",
    "tel": "02-400-5110"
  },
  {
    "row": 75,
    "name": "미사강변도시",
    "location": "경기 하남시",
    "count": 5,
    "date": "2016-06-01",
    "details": "A24BL59A(1)/59B(1)/84A(1)/A25BL84A(1)/84C(1)",
    "tel": "1600-1004"
  },
  {
    "row": 76,
    "name": "한신휴플러스",
    "location": "경기 화성시",
    "count": 90,
    "date": "2016-05-26",
    "details": "76(32)/83A(36)/83B(22)",
    "tel": "1522-1225"
  },
  {
    "row": 77,
    "name": "DMC2차 아이파크",
    "location": "서울 서대문구",
    "count": 44,
    "date": "2016-05-26",
    "details": "59A(1)/84A(7)/84B(11)/84B1(2)/84C(7)/84D(8)/84E(8)",
    "tel": "02-1670-1350"
  },
  {
    "row": 78,
    "name": "자이더익스프레스 3차",
    "location": "경기 평택시",
    "count": 211,
    "date": "2016-05-27",
    "details": "59A(53)/59B(15)/72A(25)/72B(9)/84A(28)/84B(50)/84C(31)",
    "tel": "031-852-5742"
  },
  {
    "row": 79,
    "name": "수지성복 효성해링턴 코트",
    "location": "경기 용인시",
    "count": 9,
    "date": "2016-05-31",
    "details": "84A(2)/84B(2)/84C(2)/84D(2)/84E(1)",
    "tel": "031-717-2169"
  },
  {
    "row": 80,
    "name": "은계지구 써밋플레이스",
    "location": "경기 시흥시",
    "count": 31,
    "date": "2016-06-09",
    "details": "84A(22)/84B(9)",
    "tel": "1600-5782"
  },
  {
    "row": 81,
    "name": "신안인스빌",
    "location": "경기 하남시",
    "count": 39,
    "date": "2016-06-28",
    "details": "84(39)",
    "tel": "031-794-3040"
  },
  {
    "row": 82,
    "name": "e편한세상 상록",
    "location": "경기 안산시",
    "count": 53,
    "date": "2016-06-02",
    "details": "59(8)/74A(12)/84B(25)/84(8)",
    "tel": "02-528-0574"
  },
  {
    "row": 83,
    "name": "더하우스범어",
    "location": "대구 수성구",
    "count": 22,
    "date": "2016-06-10",
    "details": "84A(8)/84B(14)",
    "tel": "053-756-5005"
  },
  {
    "row": 84,
    "name": "상도노빌리티",
    "location": "서울 동작구",
    "count": 8,
    "date": "2016-06-09",
    "details": "59A(4)/59C(2)/84A(22)/84B(2)/84C(6)/84D(2)/84E(1)/84F(1)",
    "tel": "02-2011-7114"
  },
  {
    "row": 85,
    "name": "이지더원",
    "location": "경남 진주시",
    "count": 151,
    "date": "2016-06-06",
    "details": "73(43)/84(92)/113(16)",
    "tel": "1600-8397"
  },
  {
    "row": 86,
    "name": "백련산파크자이",
    "location": "서울 은평구",
    "count": 29,
    "date": "2016-06-15",
    "details": "49(6)/55(1)/59B(2)/84A(8)/84B(8)/84C(4)",
    "tel": "02-2154-1114"
  },
  {
    "row": 87,
    "name": "반도유보라아이비파크",
    "location": "경기 화성시",
    "count": 122,
    "date": "2016-06-10",
    "details": "59A(60)/59B(10)/74(38)/84(14)",
    "tel": "02-3011-2700"
  },
  {
    "row": 88,
    "name": "호반써밋플레이스",
    "location": "광주 서구",
    "count": 24,
    "date": "2016-06-22",
    "details": "84A(16)/84B(8)",
    "tel": "062-650-3352"
  },
  {
    "row": 89,
    "name": "신동탄파크자이2차",
    "location": "경기 화성시",
    "count": 37,
    "date": "2016-06-10",
    "details": "84A(11)/84B(12)/84C(10)/84D(2)/84E(2)",
    "tel": "031-852-5742"
  },
  {
    "row": 90,
    "name": "에메랄드 퀸",
    "location": "전남 목포시",
    "count": 24,
    "date": "2016-06-10",
    "details": "63F(6)/77E(6)/84D(3)/84C(6)/84B(3)",
    "tel": "1522-2806"
  },
  {
    "row": 91,
    "name": "해피아이유",
    "location": "광주 북구",
    "count": 26,
    "date": "2016-06-07",
    "details": "58(8)",
    "tel": "062-529-1117"
  },
  {
    "row": 92,
    "name": "라온프라이빗",
    "location": "강원 원주시",
    "count": 63,
    "date": "2016-06-13",
    "details": "59A(25)/84A(8)/84B(14)/84C(16)",
    "tel": "033-761-0666"
  },
  {
    "row": 93,
    "name": "센트럴파크푸르지오",
    "location": "경기 부천시",
    "count": 88,
    "date": "2016-06-16",
    "details": "84A(22)/84B(30)/84C(8)/84D(20)/84E(8)",
    "tel": "02-2112-6300"
  },
  {
    "row": 94,
    "name": "시흥 우미린",
    "location": "경기 시흥시",
    "count": 44,
    "date": "2016-06-10",
    "details": "84(44)",
    "tel": "1588-9950"
  },
  {
    "row": 95,
    "name": "한양수자인",
    "location": "경기 시흥시",
    "count": 107,
    "date": "2016-06-16",
    "details": "75A(25)/75B(8)/84(74)",
    "tel": "1644-1090"
  },
  {
    "row": 96,
    "name": "금호어울림포레2차",
    "location": "경북 구미시",
    "count": 24,
    "date": "2016-06-16",
    "details": "84A(20)/84B(4)",
    "tel": "054-456-8050"
  },
  {
    "row": 97,
    "name": "효성해링턴",
    "location": "충남 아산시",
    "count": 8,
    "date": "2016-06-22",
    "details": "59A(3)/59B(1)/74(1)/84A(2)/84B(1)",
    "tel": "1600-2232"
  },
  {
    "row": 98,
    "name": "세종트리쉐이드",
    "location": "세종특별자치시",
    "count": 4,
    "date": "2016-06-21",
    "details": "69A(2)/84A(1)/84C(1)",
    "tel": "1899-4665"
  },
  {
    "row": 99,
    "name": "화성동탄2 공공분양",
    "location": "경기 화성시",
    "count": 2,
    "date": "2016-06-20",
    "details": "59A-1(1)/74A-1(1)",
    "tel": "031-379-6852"
  },
  {
    "row": 100,
    "name": "답십리파크자이",
    "location": "서울 동대문구",
    "count": 36,
    "date": "2016-06-16",
    "details": "49A(4)/49B(7)/59A(7)/59B(1)/59C(3)/59E(4)/84A(5)/84B(5)",
    "tel": "1644-1546"
  },
  {
    "row": 101,
    "name": "힐스테이트 동탄",
    "location": "경기 화성시",
    "count": 147,
    "date": "2016-06-16",
    "details": "61(15)/74A(14)/74B(7)/74C(7)/84A(96)/84B(8)",
    "tel": "1877-5510"
  },
  {
    "row": 102,
    "name": "한성필하우스",
    "location": "충남 아산시",
    "count": 45,
    "date": "2016-06-22",
    "details": "76(14)/84A(12)/84B(12)/84C(2)/84D(5)",
    "tel": "041-556-5656"
  },
  {
    "row": 103,
    "name": "북한산두산위브",
    "location": "서울 서대문구",
    "count": 19,
    "date": "2016-06-22",
    "details": "50(1)/59H(1)/84A(13)/84C(3)/84D(1)",
    "tel": "02-353-9500"
  },
  {
    "row": 104,
    "name": "김해율하원메이저",
    "location": "경남 김해시",
    "count": 189,
    "date": "2016-06-22",
    "details": "B174(9)/84A(29)/84B1(12)/84B2(12)/S159A(19)/59B(10)/74(17)/84A(23)/S284A(46)/84B1(4)/84B2(4)/84C(4)",
    "tel": "055-958-0549"
  },
  {
    "row": 105,
    "name": "미르채 임대아파트",
    "location": "전남 장흥군",
    "count": 20,
    "date": "2016-06-23",
    "details": "84A(4)/59B(14)/59C(1)/59D(1)",
    "tel": "061-863-4580"
  },
  {
    "row": 106,
    "name": "아크로 리버하임",
    "location": "서울 동작구",
    "count": 10,
    "date": "2016-06-28",
    "details": "59A(1)/72(1)/84A,84B(3)/84C(4)/84T(1)",
    "tel": "1522-1073"
  },
  {
    "row": 107,
    "name": "장락동 엘크루",
    "location": "충북 제천시",
    "count": 29,
    "date": "2016-06-23",
    "details": "76A(24)/76B(2)/84A(2)/84B(1)",
    "tel": "02-528-0593"
  },
  {
    "row": 108,
    "name": "고양향동지구",
    "location": "경기 고양시",
    "count": 202,
    "date": "2016-07-06",
    "details": "B270A(17)/70B(5)/84A(23)/B370(37)/84A(24)/84B(8)/B470(41)/84A(42)/84B(5)",
    "tel": "070-4760-6356"
  },
  {
    "row": 109,
    "name": "청라국제도시",
    "location": "인천 서구",
    "count": 67,
    "date": "2016-06-24",
    "details": "82A(46)/82B(17)/82C(4)",
    "tel": "1600-1331"
  },
  {
    "row": 110,
    "name": "KCC스위첸",
    "location": "경기 용인시",
    "count": 17,
    "date": "2016-06-27",
    "details": "79.93(4)/84.99(11)/84.98(2)",
    "tel": "1833-6221"
  },
  {
    "row": 111,
    "name": "신동아파밀리에 4차",
    "location": "세종특별자치시",
    "count": 6,
    "date": "2016-07-01",
    "details": "59B(1)/59C(1)/59D(1)/59E(1)/84B(1)/84D(1)",
    "tel": "044-868-3200"
  },
  {
    "row": 112,
    "name": "U-CITY 대명루첸",
    "location": "경기 하남시",
    "count": 85,
    "date": "2016-07-01",
    "details": "74A(76)/74B(9)",
    "tel": "031-562-7070"
  },
  {
    "row": 113,
    "name": "제일풍경채 에듀&파크",
    "location": "경기 화성시",
    "count": 62,
    "date": "2016-07-08",
    "details": "59(36)/76A(22)/76B(4)",
    "tel": "062-234-0081"
  },
  {
    "row": 114,
    "name": "더샵 아이파크",
    "location": "경기 안양시",
    "count": 30,
    "date": "2016-07-12",
    "details": "74.91(8)/84.98(21)/84.89(1)",
    "tel": "031-454-5500"
  },
  {
    "row": 115,
    "name": "래미안 명일역 솔베뉴",
    "location": "서울 강동구",
    "count": 4,
    "date": "2016-07-06",
    "details": "59D(1)/78B(1)/78C(1)/84B(1)",
    "tel": "02-401-3301"
  },
  {
    "row": 116,
    "name": "향동지구 B-1블록",
    "location": "경기 고양시",
    "count": 96,
    "date": "2016-07-01",
    "details": "74(35)/80(1)/84A(36)/84B1(12)/84B2(12)",
    "tel": "1522-1661"
  },
  {
    "row": 117,
    "name": "동문굿모닝힐 맘시티",
    "location": "경기 평택시",
    "count": 273,
    "date": "2016-07-14",
    "details": "1BL59.7109(15)/59.7056(12)/59.9845(10)/74.7660(28)/84.9718(19),2BL(59.7109(24)/59.7056(20)/59.9845(9)/72.8928(4)/74.7660(20)/74.6181(2)/84.9718(21),4BL59.7109(14)/59.7056(22)/59.9845(4)/72.8928(14)/74.7660(5)/74.6181(14)/84.9718(16)",
    "tel": "031-651-7733"
  },
  {
    "row": 118,
    "name": "송도 SK VIEW",
    "location": "인천 연수구",
    "count": 199,
    "date": "2016-07-08",
    "details": "75.61(6)/84.65(106)/84.81(12)/84.98(35)/84.69(40)",
    "tel": "031-834-6809"
  },
  {
    "row": 119,
    "name": "금강펜테리움 센트럴파크2차",
    "location": "경기 군포시",
    "count": 44,
    "date": "2016-07-13",
    "details": "76A(22)/84A(22)",
    "tel": "1899-3588"
  },
  {
    "row": 120,
    "name": "시흥배곧 써밋플레이스",
    "location": "경기 시흥시",
    "count": 172,
    "date": "2016-07-14",
    "details": "C184A(50)/84B(23)/84C(12), C284A(51)/84B(24)/84C(12)",
    "tel": "1566-0220"
  },
  {
    "row": 121,
    "name": "e편한세상 장유2차",
    "location": "경남 김해시",
    "count": 24,
    "date": "2016-07-11",
    "details": "59(3)/63(2)/74(9)/84(10)",
    "tel": "055-314-2800"
  },
  {
    "row": 122,
    "name": "북대구 한신더휴",
    "location": "대구 북구",
    "count": 135,
    "date": "2016-07-20",
    "details": "A169(24)/84A(23)/84B(25)/A284A(17)/84B(28)/84C(18)",
    "tel": "1644-1825"
  },
  {
    "row": 123,
    "name": "에코시티 휴먼빌",
    "location": "전북 전주시",
    "count": 34,
    "date": "2016-07-11",
    "details": "59A(10)/59B(2)/84A(16)/84B(3)/84C(3)",
    "tel": "063-273-6700"
  },
  {
    "row": 124,
    "name": "광양 에르가",
    "location": "전남 광양시",
    "count": 42,
    "date": "2016-07-15",
    "details": "59(13)/71(29)",
    "tel": "055-752-5551"
  },
  {
    "row": 125,
    "name": "시흥 대방노블랜드",
    "location": "경기 시흥시",
    "count": 31,
    "date": "2016-07-15",
    "details": "59A(18)/59B(13)",
    "tel": "1688-6800"
  },
  {
    "row": 126,
    "name": "세종시 2-1생활권",
    "location": "세종특별자치시",
    "count": 2,
    "date": "2016-07-25",
    "details": "74A(1)/74B(1)",
    "tel": "044-868-0799"
  },
  {
    "row": 127,
    "name": "미사강변 제일풍경채",
    "location": "경기 하남시",
    "count": 38,
    "date": "2016-07-21",
    "details": "84A(38)",
    "tel": "1522-2432"
  },
  {
    "row": 128,
    "name": "래미안 명일역 솔베뉴",
    "location": "서울 강동구",
    "count": 4,
    "date": "2016-07-20",
    "details": "59D(1)/78B(1)/78C(1)/84B(1)",
    "tel": "02-401-3301"
  },
  {
    "row": 129,
    "name": "남양주 다산신도시",
    "location": "경기 남양주시",
    "count": 8,
    "date": "2016-07-21",
    "details": "84A(4)/84B(4)",
    "tel": "1800-4774"
  },
  {
    "row": 130,
    "name": "래미안 장위1,5구역",
    "location": "서울 성북구",
    "count": 33,
    "date": "2016-08-09",
    "details": "1구역59(1)/84A(8)/84B(4)/5구역59(4)/84A(3)/84B(9)/84C(4)",
    "tel": "02-745-8111"
  },
  {
    "row": 131,
    "name": "에코시티 데시앙",
    "location": "전북 전주시",
    "count": 362,
    "date": "2016-07-26",
    "details": "7BL59(36)/84A(10)/84B(89)/12BL59(36)/84A(165)/84B(26)",
    "tel": "063-255-2299"
  },
  {
    "row": 132,
    "name": "동탄2신도시 동원로얄듀크",
    "location": "경기 화성시",
    "count": 75,
    "date": "2016-08-04",
    "details": "84(56)/74(19)",
    "tel": "1522-2367"
  },
  {
    "row": 133,
    "name": "구미 신안실크밸리",
    "location": "경북 구미시",
    "count": 22,
    "date": "2016-07-29",
    "details": "84A(7)/84B(15)",
    "tel": "054-441-2500"
  },
  {
    "row": 134,
    "name": "ES아뜨리움",
    "location": "강원 속초시",
    "count": 21,
    "date": "2016-08-04",
    "details": "59(8)/75(1)/79(12)",
    "tel": "033-638-3611"
  },
  {
    "row": 135,
    "name": "e편한세상 원주태장",
    "location": "강원 원주시",
    "count": 68,
    "date": "2016-08-11",
    "details": "59A(10)/59B(6)/59C(22)/74(30)",
    "tel": "033-747-6990"
  },
  {
    "row": 136,
    "name": "사랑으로",
    "location": "경기 화성시",
    "count": 105,
    "date": "2016-08-11",
    "details": "A7059(30)/60A(11)/84A(10)/84B(5)/84C(5)/A7184A(11)/84B(6)/84C(5)/A7284A(11)/84B(6)/84C(5)",
    "tel": "031-375-5726"
  },
  {
    "row": 137,
    "name": "e편한세상 우아",
    "location": "전북 전주시",
    "count": 20,
    "date": "2016-08-11",
    "details": "59(7)/74(7)/84A(2)/84B(4)",
    "tel": "063-242-2477"
  },
  {
    "row": 138,
    "name": "북한산 두산위브",
    "location": "서울 서대문구",
    "count": 19,
    "date": "2016-08-16",
    "details": "50(1)/59H(1)/84A(13)/84C(3)/84D(1)",
    "tel": "02-353-9500"
  },
  {
    "row": 139,
    "name": "금강펜테리움 리버테라스1",
    "location": "경기 남양주시",
    "count": 94,
    "date": "2016-08-18",
    "details": "84A(46)/84B(48)",
    "tel": "1899-5733"
  },
  {
    "row": 140,
    "name": "반도유보라 메이플타운",
    "location": "경기 남양주시",
    "count": 125,
    "date": "2016-08-18",
    "details": "76(15)/84A(82)/84B(28)",
    "tel": "031-574-4344"
  },
  {
    "row": 141,
    "name": "대방 디엠시티",
    "location": "세종특별자치시",
    "count": 6,
    "date": "2016-08-16",
    "details": "84A(1)/84B(1)/84C(1)/84D(3)",
    "tel": "1688-7730"
  },
  {
    "row": 142,
    "name": "정촌 대경파미르",
    "location": "경남 진주시",
    "count": 475,
    "date": "2016-08-22",
    "details": "66A(49)/66B(49)/76(49)/84A(124)/84B(204)",
    "tel": "055-762-6900"
  },
  {
    "row": 143,
    "name": "한양수자인 레이크블루",
    "location": "인천광역시 서구",
    "count": 38,
    "date": "2016-08-19",
    "details": "59A(9)/59B(6)/84A(37)/84B(20)/84C(27)/84D(27)/84E(25)",
    "tel": "1544-9293"
  },
  {
    "row": 144,
    "name": "센트럴 푸르지오",
    "location": "경기 오산시",
    "count": 80,
    "date": "2016-08-19",
    "details": "74(23)/84A(33)/84B(24)",
    "tel": "1800-0227"
  },
  {
    "row": 145,
    "name": "e편한세상 두정4차",
    "location": "충남 천안시",
    "count": 45,
    "date": "2016-08-19",
    "details": "62A(15)/62B(19)/74(11)",
    "tel": "1800-1222"
  },
  {
    "row": 146,
    "name": "가재마을 6단지",
    "location": "세종특별자치시",
    "count": 6,
    "date": "2016-08-22",
    "details": "84A-1(1)/84A-2(1)/84A-3(1)/84B-1(1)/84B-2(1)/84B-3(1)",
    "tel": "02-3436-3541"
  },
  {
    "row": 147,
    "name": "에코시티 KCC스위첸",
    "location": "전북 전주시",
    "count": 94,
    "date": "2016-08-25",
    "details": "59(25)/84A(50)/84B(10)/84C(9)",
    "tel": "1522-5995"
  },
  {
    "row": 148,
    "name": "도남 해모로 리치힐",
    "location": "제주특별자치도",
    "count": 23,
    "date": "2016-08-30",
    "details": "59(2)/74(3)/84A(1)/84B(14)/84C(3)",
    "tel": "064-727-1330"
  },
  {
    "row": 149,
    "name": "복대두진하트리움2차",
    "location": "충북 청주시",
    "count": 13,
    "date": "2016-08-29",
    "details": "74A(6)/74B(6)/74C(1)",
    "tel": "043-288-3001"
  },
  {
    "row": 150,
    "name": "속초KCC스위첸",
    "location": "강원 속초시",
    "count": 20,
    "date": "2016-08-29",
    "details": "59A(5)/59B(1)/74(4)/84A(9)/84B(1)",
    "tel": "033-636-2016"
  },
  {
    "row": 151,
    "name": "한양수자인 안양역",
    "location": "경기 안양시",
    "count": 18,
    "date": "2016-08-30",
    "details": "59A(2)/59C(2)/59D(2)/84A(8)/84B(2)/84C(2)",
    "tel": "1877-9008"
  },
  {
    "row": 152,
    "name": "송파두산위브",
    "location": "서울 송파구",
    "count": 21,
    "date": "2016-09-02",
    "details": "59(17)/84(4)",
    "tel": "1899-3145"
  },
  {
    "row": 153,
    "name": "용인 역북 신원아침도시",
    "location": "경기 용인시",
    "count": 25,
    "date": "2016-09-05",
    "details": "59A(3)/59B(12)/74(10)",
    "tel": "031-333-5863"
  },
  {
    "row": 154,
    "name": "김포 풍무 꿈에그린2차",
    "location": "경기 김포시",
    "count": 107,
    "date": "2016-09-22",
    "details": "3BL74A(12)/74B(6)/4BL59A(31)/59B(4)/59C(4)/74A(18)/74B(9)/5BL59A(20)/59B(3)",
    "tel": "1522-3600"
  },
  {
    "row": 155,
    "name": "감일스윗시티 B-7블록",
    "location": "경기 하남시",
    "count": 3,
    "date": "2016-09-22",
    "details": "84A(2)/84B(1)",
    "tel": "031-790-9355"
  },
  {
    "row": 156,
    "name": "아크로리버뷰",
    "location": "서울 서초구",
    "count": 1,
    "date": "2016-09-19",
    "details": "78A(1)",
    "tel": "02-2011-7114"
  },
  {
    "row": 157,
    "name": "창원자은3 S-1 및 창원일반산단 Z블록",
    "location": "경남 창원시",
    "count": 2,
    "date": "2016-09-26",
    "details": "창원자은3 S-1(1)/창원일반산단 Z(1)",
    "tel": "055-210-8400"
  },
  {
    "row": 158,
    "name": "의정부민락2 B-3블록",
    "location": "경기 의정부시",
    "count": 4,
    "date": "2016-09-30",
    "details": "74A(2)/74B(1)/84A(1)",
    "tel": "02-2017-4319"
  },
  {
    "row": 159,
    "name": "고덕 그라시움",
    "location": "서울 강동구",
    "count": 187,
    "date": "2016-09-28",
    "details": "59A(52)/59B(2)/59C(16)/59D(12)/73A(16)/73B(15)/84A(32)/84B(2)/84C(26)/84D(14)",
    "tel": "02-488-8400"
  },
  {
    "row": 160,
    "name": "수원호매실 B-2블록",
    "location": "경기 수원시",
    "count": 2,
    "date": "2016-09-26",
    "details": "75A(1)/84A(1)",
    "tel": "031-250-8352"
  },
  {
    "row": 161,
    "name": "의왕 장안지구 파크 푸르지오",
    "location": "경기 의왕시",
    "count": 105,
    "date": "2016-09-28",
    "details": "74(21)/84A(59)/84B(9)/84C(9)/84D(7)",
    "tel": "1800-2703"
  },
  {
    "row": 162,
    "name": "영종 한신더휴 스카이파크",
    "location": "인천 중구",
    "count": 52,
    "date": "2016-09-28",
    "details": "59A(21)/59B(21)/59C(10)",
    "tel": "1661-8858"
  },
  {
    "row": 163,
    "name": "시흥목감 A2블록",
    "location": "경기 시흥시",
    "count": 1,
    "date": "2016-09-26",
    "details": "59A(1)",
    "tel": "02-2026-9482"
  },
  {
    "row": 164,
    "name": "쌍용예가 더파크",
    "location": "경북 구미시",
    "count": 63,
    "date": "2016-09-22",
    "details": "84A(48)/84B(3)/84C(3)/84D(6)/84E(3)",
    "tel": "054-461-6300"
  },
  {
    "row": 165,
    "name": "에일린의 뜰",
    "location": "경기 남양주시",
    "count": 74,
    "date": "2016-09-28",
    "details": "84A(39)/84B(21)/84C(14)",
    "tel": "1522-4777"
  },
  {
    "row": 166,
    "name": "김포한강신도시 Ab-18,19,21 호반베르디움",
    "location": "경기 김포시",
    "count": 91,
    "date": "2016-09-28",
    "details": "Ab-1870(4)/84A(22)/84B(3)/84C(3)/Ab-1970B(4)/84A(29)/Ab-2170A(3)/84A(23)",
    "tel": "070-4760-6354"
  },
  {
    "row": 167,
    "name": "e편헌세상 독산 더타워",
    "location": "서울 금천구",
    "count": 43,
    "date": "2016-09-22",
    "details": "59A(13)/59B(3)/59C(3)/59D(6)/59E(2)/74(4)/76(4)/78(4)/84(4)",
    "tel": "02-802-4500"
  },
  {
    "row": 168,
    "name": "대방디엠시티",
    "location": "세종특별자치시",
    "count": 6,
    "date": "2016-09-26",
    "details": "84A(1)/84B(1)/84C(1)/84D(3)",
    "tel": "1688-7730"
  },
  {
    "row": 169,
    "name": "시흥은계 B2블록",
    "location": "경기 시흥시",
    "count": 2,
    "date": "2016-09-30",
    "details": "74A(1)/84A,B(1)",
    "tel": "02-2026-9483"
  },
  {
    "row": 170,
    "name": "세종파라곤",
    "location": "세종특별자치시",
    "count": 5,
    "date": "2016-09-21",
    "details": "59A(2)/84A(3)",
    "tel": "1661-9744"
  },
  {
    "row": 171,
    "name": "리슈빌수자인",
    "location": "세종특별자치시",
    "count": 13,
    "date": "2016-09-26",
    "details": "L359A(2),59B(1),84B(2)/M284A(3),84B(4),84C(1)",
    "tel": "044-868-1771"
  },
  {
    "row": 172,
    "name": "송도하이빌 Park Lane",
    "location": "인천 연수구",
    "count": 101,
    "date": "2016-09-28",
    "details": "66(8)/74(26)/84A(33)/84B(34)",
    "tel": "032-821-1180"
  },
  {
    "row": 173,
    "name": "래미안 신반포 리오센트",
    "location": "삼성물산",
    "count": 4,
    "date": "2016-10-10",
    "details": "59A(1)/84A(1)/84B(1)/84C(1)",
    "tel": "02-451-3370"
  },
  {
    "row": 174,
    "name": "힐스테이트 초전",
    "location": "경남 진주시",
    "count": 88,
    "date": "2016-09-22",
    "details": "84A(68)/84B(20)",
    "tel": "1644-3690"
  },
  {
    "row": 175,
    "name": "경남혁신도시 A-12BL 중흥S-클래스",
    "location": "경남 진주시",
    "count": 31,
    "date": "2016-09-29",
    "details": "84A(22)/84B(9)",
    "tel": "055-763-1620"
  },
  {
    "row": 176,
    "name": "양주옥정A21-1,2블록",
    "location": "경기 양주시",
    "count": 9,
    "date": "2016-10-06",
    "details": "A21-1BL74A(1)/74B(1)/74C(1)/84A(1)/84B(1), A21-2BL74A(1)/74B(1)/84A(1)/84C(1)",
    "tel": "031-820-8703"
  },
  {
    "row": 177,
    "name": "e편한세상 추동공원",
    "location": "경기 의정부시",
    "count": 155,
    "date": "2016-09-28",
    "details": "59A(6)/59B(14)/59C(17)/72A(78)/72B(13)/84(27)",
    "tel": "031-875-1561"
  },
  {
    "row": 178,
    "name": "힐스테이트 태전2차",
    "location": "경기 광주시",
    "count": 104,
    "date": "2016-09-27",
    "details": "10단지62A(4)/72A(8)/72B(2)/72C(6)/72D(6)/84(10)/11단지62A(13)/62B(11)/72A(17)/72B(11)/84(16)",
    "tel": "031-702-5353"
  },
  {
    "row": 179,
    "name": "e편한세상 반곡",
    "location": "강원 원주시",
    "count": 49,
    "date": "2016-10-05",
    "details": "59A(16)/84A(8)/84B(20)/84C(5)",
    "tel": "033-766-2299"
  },
  {
    "row": 180,
    "name": "효성해링턴 플레이스",
    "location": "강원 속초시",
    "count": 58,
    "date": "2016-09-28",
    "details": "59A(19)/59B(1)/74(11)/84A(14)/84B(13)",
    "tel": "033-631-0991"
  },
  {
    "row": 181,
    "name": "도량 롯데캐슬 골드파크",
    "location": "경북 구미시",
    "count": 33,
    "date": "2016-09-29",
    "details": "84A(13)/84B(7)/84C(8)/84D(5)",
    "tel": "1899-1844"
  },
  {
    "row": 182,
    "name": "행복도시 3-1생활권",
    "location": "세종특별자치시",
    "count": 2,
    "date": "2016-10-11",
    "details": "59A/B(2)",
    "tel": "044-860-7855"
  },
  {
    "row": 183,
    "name": "대구율하1 3블록",
    "location": "대구 동구",
    "count": 1,
    "date": "2016-09-28",
    "details": "84(1)",
    "tel": "053-603-2556"
  },
  {
    "row": 184,
    "name": "시흥배곧 B1,B5",
    "location": "경기 시흥시",
    "count": 3,
    "date": "2016-10-06",
    "details": "B161A(1)/84A(1),B574A(1)",
    "tel": "032-890-5231"
  },
  {
    "row": 185,
    "name": "래미안 장위 퍼스트하이",
    "location": "서울 성북구",
    "count": 19,
    "date": "2016-10-04",
    "details": "59(6)/84A(4)/84B(14)/84C(6)",
    "tel": "02-745-8111"
  },
  {
    "row": 186,
    "name": "군포송정 A-2블록",
    "location": "경기 군포시",
    "count": 1,
    "date": "2016-10-06",
    "details": "59A(1)",
    "tel": "1600-1004"
  },
  {
    "row": 187,
    "name": "사랑으로",
    "location": "경기 화성시",
    "count": 271,
    "date": "2016-09-29",
    "details": "A7360A(13)/84A(50)/84B(22)/84C(21),A7460A(14)/84A(46)/84B(13)/84C(13),A7559A(39)/60A(15)/84A(13)/84B(6)/84C(6)",
    "tel": "031-375-5726"
  },
  {
    "row": 188,
    "name": "전주 에코시티 더샵3차",
    "location": "전북 전주시",
    "count": 41,
    "date": "2016-10-06",
    "details": "59A(11)/59B(3)/84A(3)/84B(13)/84C(11)",
    "tel": "1661-0074"
  },
  {
    "row": 189,
    "name": "의왕백운밸리 효성해링턴플레이스",
    "location": "경기 의왕시",
    "count": 206,
    "date": "2016-10-06",
    "details": "1군B블록84.9404(65)/84.9923(12),2군C171.9492(6)/84.9404(32)/84.9923(6)/84.9843(4),2군C284.9404(9)/84.9923(3)/84.9843(1),2군C384.9404(12)/84.9923(4),3군C484.9404(39)/84.9923(12)/84.9843(1)",
    "tel": "1661-1030"
  },
  {
    "row": 190,
    "name": "마포 한강 아이파크",
    "location": "서울 마포구",
    "count": 17,
    "date": "2016-09-29",
    "details": "59A(5)/59B(1)/84A(5)/84B(3)/84C(3)",
    "tel": "02-324-8053"
  },
  {
    "row": 191,
    "name": "원주 호반베르디움",
    "location": "강원 원주시",
    "count": 153,
    "date": "2016-10-12",
    "details": "3-1BL59(27)/84(53)/3-2BL59(24)/84(49)",
    "tel": "1566-7880"
  },
  {
    "row": 192,
    "name": "그랑시티자이",
    "location": "경기 안산시",
    "count": 163,
    "date": "2016-10-06",
    "details": "1회차59(18)/72(8)/84A(58)/84B(26)/84C(13)/84D(22)/84E(18),2회차59(8)/72(8)/84A(58)/84B(31)/84C(22)/84D(22)/84E(9)",
    "tel": "02-2154-1114"
  },
  {
    "row": 193,
    "name": "동탄 더샵 레이크에듀타운",
    "location": "경기 화성시",
    "count": 152,
    "date": "2016-10-12",
    "details": "84A(46)/84B(26)/84C(26)/84D(28)/84E(26)",
    "tel": "02-2112-6364"
  },
  {
    "row": 194,
    "name": "신촌그랑자이",
    "location": "서울 마포구",
    "count": 45,
    "date": "2016-10-13",
    "details": "59A(10)/59B(3)/84A(22)/84B(5)/84C(4)/84D(1)",
    "tel": "02-2135-2577"
  },
  {
    "row": 195,
    "name": "영종하늘도시 화성파크드림",
    "location": "인천 중구",
    "count": 63,
    "date": "2016-10-06",
    "details": "73(14)/84A(30)/84B(19)",
    "tel": "032-751-8922"
  },
  {
    "row": 196,
    "name": "에코시티자이",
    "location": "전북 전주시",
    "count": 63,
    "date": "2016-10-06",
    "details": "84A(26)/84B(6)/84C(11)",
    "tel": "1800-7006"
  },
  {
    "row": 197,
    "name": "힐스테이트 레이크송도 2차",
    "location": "인천 연수구",
    "count": 73,
    "date": "2016-10-13",
    "details": "84A(40)/84B(27)/84C(6)",
    "tel": "032-834-8890"
  },
  {
    "row": 198,
    "name": "동탄2 A48블록",
    "location": "경기 화성시",
    "count": 3,
    "date": "2016-10-17",
    "details": "59A1(1)/59B1(1)/74A,A2(1)",
    "tel": "031-8077-7999"
  },
  {
    "row": 199,
    "name": "다산신도시 금강펜테리움 리버테라스2",
    "location": "경기 남양주시",
    "count": 129,
    "date": "2016-10-13",
    "details": "79(9)/84A(60)/84B(60)",
    "tel": "1899-5733"
  },
  {
    "row": 200,
    "name": "해운대 센텀 트루엘",
    "location": "부산 해운대구",
    "count": 53,
    "date": "2016-10-20",
    "details": "1단지59A(4)/59B(8)/74A(4)/84A(11)/84B(6),2단지59A(4)/59B(4)/74A(5)/74B(7)",
    "tel": "1522-2226"
  },
  {
    "row": 201,
    "name": "영종 푸르지오 자이",
    "location": "인천 중구",
    "count": 241,
    "date": "2016-10-20",
    "details": "64A(68)/64B(14)/64C(19)/74A(20)/74B(8)/84A(41)/84B(39)/84C(17)/84D(15)",
    "tel": "1600-0878"
  },
  {
    "row": 202,
    "name": "충북혁신도시 B2블록",
    "location": "충북 진천군",
    "count": 1,
    "date": "2016-10-12",
    "details": "84A(1)",
    "tel": "043-533-6723"
  },
  {
    "row": 203,
    "name": "방배마에스트로",
    "location": "서울 서초구",
    "count": 40,
    "date": "2016-10-18",
    "details": "A1(11)/A2(7)/A3(7)/B(6)/C(9)",
    "tel": "1670-1447"
  },
  {
    "row": 204,
    "name": "초지역 메이저타운 푸르지오",
    "location": "경기 안산시",
    "count": 132,
    "date": "2016-10-18",
    "details": "메트로48(27)/59A(16)/59B(1)/59C(5),파크49(10)/59A(10)/59B(2)/59C(10)/72(4)/84(1),에코49(27)/59A(3)/59B(5)/59C(8)/72(1)/84(2)",
    "tel": "1800-3523"
  },
  {
    "row": 205,
    "name": "신길뉴타운 아이파크",
    "location": "서울 영등포구",
    "count": 36,
    "date": "2016-10-18",
    "details": "59A(8)/59B(6)/59C(4)/84A(8)/84B(6)/84C(4)",
    "tel": "1577-2850"
  },
  {
    "row": 206,
    "name": "울산송정지구 B1블록",
    "location": "울산 북구",
    "count": 49,
    "date": "2016-10-19",
    "details": "75(8)/84A(33)/84B(4)/84C(4)",
    "tel": "1566-0799"
  },
  {
    "row": 207,
    "name": "더샵 파크시티",
    "location": "경기 오산시",
    "count": 216,
    "date": "2016-10-20",
    "details": "61A(50)/61B(30)/74(75)/84A(50)/84B(11)",
    "tel": "1855-0110"
  },
  {
    "row": 208,
    "name": "모아미래도",
    "location": "경기 화성시",
    "count": 17,
    "date": "2016-10-20",
    "details": "73A(10)/84(7)",
    "tel": "1644-9448"
  },
  {
    "row": 209,
    "name": "리슈빌수자인 P2",
    "location": "세종특별자치시",
    "count": 4,
    "date": "2016-10-25",
    "details": "L3블록59A(2)/59B(1)/84B(1)",
    "tel": "044-868-1771"
  },
  {
    "row": 210,
    "name": "수지 파크 푸르지오",
    "location": "경기 용인시",
    "count": 42,
    "date": "2016-10-31",
    "details": "59A(20)/59B(8)/59C(2)/59D(2)/84A(10)",
    "tel": "031-539-0707"
  },
  {
    "row": 211,
    "name": "e편한세상 서울대입구",
    "location": "서울 관악구",
    "count": 65,
    "date": "2016-10-31",
    "details": "84A(6)/84B(31)/84C(8)/84D(13)/84E(7)",
    "tel": "1877-9005"
  },
  {
    "row": 212,
    "name": "캐슬&파밀리에 디아트",
    "location": "세종특별자치시",
    "count": 19,
    "date": "2016-10-25",
    "details": "M184A(7)/84B(2),L251A(2)/59A(4)/62A(1)/62B(1)/84A(1)/84B(1)",
    "tel": "1522-4111"
  },
  {
    "row": 213,
    "name": "부산명지 B8블록",
    "location": "부산 강서구",
    "count": 1,
    "date": "2016-10-26",
    "details": "74A(1)",
    "tel": "051-460-5456"
  },
  {
    "row": 214,
    "name": "제천강저 B2블록",
    "location": "충북 제천시",
    "count": 1,
    "date": "2016-10-26",
    "details": "84A(1)",
    "tel": "043-651-9118"
  },
  {
    "row": 215,
    "name": "덕풍역 파크 어울림",
    "location": "경기 하남시",
    "count": 37,
    "date": "2016-10-21",
    "details": "59A(34)/59B(3)",
    "tel": "031-830-7777"
  },
  {
    "row": 216,
    "name": "강릉 송정 한신더휴",
    "location": "강원 강릉시",
    "count": 35,
    "date": "2016-10-26",
    "details": "84A(17)/84A1(5)/84B(13)",
    "tel": "1522-4201"
  },
  {
    "row": 217,
    "name": "호반베르디움 5차",
    "location": "경기 시흥시",
    "count": 96,
    "date": "2016-11-02",
    "details": "84A(87)/84B(9)",
    "tel": "1566-6954"
  },
  {
    "row": 218,
    "name": "장원현동 A-3BL",
    "location": "경남 창원시",
    "count": 2,
    "date": "2016-11-07",
    "details": "59(2)",
    "tel": "055-263-3500"
  },
  {
    "row": 219,
    "name": "수원인계 한양수자인",
    "location": "경기 수원시",
    "count": 28,
    "date": "2016-10-27",
    "details": "59A(6)/59B(4)/59C(4)/59D(2)/59E(2)/74(10)",
    "tel": "031-252-1112"
  },
  {
    "row": 220,
    "name": "힐스테이트 평택",
    "location": "경기 평택시",
    "count": 12,
    "date": "2016-10-31",
    "details": "64B(1)/73A(1)/73B(3)/84A(7)",
    "tel": "031-692-3402"
  },
  {
    "row": 221,
    "name": "대전 서구 관저 더샵2차",
    "location": "대전 서구",
    "count": 15,
    "date": "2016-10-26",
    "details": "74A(2)/74B(2)/84A(8)/84(3)",
    "tel": "042-543-0027"
  },
  {
    "row": 222,
    "name": "다산신도시 자연&e편한세상 2차",
    "location": "경기 남양주시",
    "count": 2,
    "date": "2016-10-31",
    "details": "74(1)/84(1)",
    "tel": "1577-7014"
  },
  {
    "row": 223,
    "name": "용산 롯데캐슬 센터포레",
    "location": "서울 용산구",
    "count": 20,
    "date": "2016-10-28",
    "details": "59A(5)/59B(3)/59C(2)/84A(4)/84B(5)/84C(1)",
    "tel": "02-777-0113"
  },
  {
    "row": 224,
    "name": "신내배후단지 중흥S-클래스",
    "location": "전남 순천시",
    "count": 144,
    "date": "2016-10-27",
    "details": "59A(75)/59B(15)/74(25)/84(29)",
    "tel": "061-727-1000"
  },
  {
    "row": 225,
    "name": "울산 송정지구",
    "location": "울산 북구",
    "count": 121,
    "date": "2016-11-09",
    "details": "B284A(37)/84B(9),B484A(46)/84B(20)/84C(9)",
    "tel": "1522-5175"
  },
  {
    "row": 226,
    "name": "제주 도남 해모로 리치힐",
    "location": "제주특별자치도",
    "count": 23,
    "date": "2016-11-09",
    "details": "59(2)/74(3)/84A(1)/84B(14)/84C(3)",
    "tel": "064-727-1330"
  },
  {
    "row": 227,
    "name": "평화 제일오투그란데",
    "location": "전북 익산시",
    "count": 16,
    "date": "2016-11-03",
    "details": "76(5)/84(11)",
    "tel": "063-857-4272"
  },
  {
    "row": 228,
    "name": "화성동탄 중흥S-클래스 A-68",
    "location": "경기 화성시",
    "count": 119,
    "date": "2016-11-03",
    "details": "83A(100)/83B(19)",
    "tel": "031-374-2242"
  },
  {
    "row": 229,
    "name": "동해 아이파크",
    "location": "강원 동해시",
    "count": 46,
    "date": "2016-11-03",
    "details": "59(10)/75A(7)/75B(8)/84(21)",
    "tel": "033-532-4500"
  },
  {
    "row": 230,
    "name": "래미안 아트리치",
    "location": "서울 성북구",
    "count": 26,
    "date": "2016-11-22",
    "details": "59A(5)/59B(3)/59C(1)/59D(4)/59E(2)/84A(4)/84B(3)/84C(4)",
    "tel": "02-765-3405"
  },
  {
    "row": 231,
    "name": "영통 아이파크 캐슬",
    "location": "경기 수원시",
    "count": 261,
    "date": "2016-11-22",
    "details": "1BL59A(20)/59B(25)/75(31)/84(83)/2BL59A(21)/59B(9)/75(20)/84(52)",
    "tel": "031-232-1700"
  },
  {
    "row": 232,
    "name": "유성숲오투그란데 3차",
    "location": "대전 유성구",
    "count": 65,
    "date": "2016-11-24",
    "details": "59(22)/69(32)/79(11)",
    "tel": "042-223-1233"
  },
  {
    "row": 233,
    "name": "시흥 센트럴 푸르지오",
    "location": "경기 시흥시",
    "count": 24,
    "date": "2016-11-28",
    "details": "59A(3)/59B(1)/75A(4)/75B(3)/84A(6)/84B(4)/84C(3)",
    "tel": "1566-6113"
  },
  {
    "row": 234,
    "name": "강릉 회산 한신더휴",
    "location": "강원 강릉시",
    "count": 40,
    "date": "2016-11-24",
    "details": "84A(19)/84B(14)/84C(7)",
    "tel": "1522-4201"
  },
  {
    "row": 235,
    "name": "동천파크자이",
    "location": "경기 용인시",
    "count": 38,
    "date": "2016-11-23",
    "details": "61A(14)/61B(10)/61C(4)/61D(4)/61E(4)/61F(2)",
    "tel": "1644-0340"
  },
  {
    "row": 236,
    "name": "연희파크푸르지오",
    "location": "서울 서대문구",
    "count": 23,
    "date": "2016-11-23",
    "details": "59(6)/84A(8)/84B(8)/84D(1)",
    "tel": "1800-3967"
  },
  {
    "row": 237,
    "name": "포일 센트럴 푸르지오",
    "location": "경기 의왕시",
    "count": 26,
    "date": "2016-11-24",
    "details": "84A(16)/84B(7)/84C(3)",
    "tel": "031-425-9009"
  },
  {
    "row": 238,
    "name": "구미 호반베르디움",
    "location": "경북 구미시",
    "count": 1107,
    "date": "2016-11-24",
    "details": "59A(1017)/59B(90)",
    "tel": "02-6177-0225"
  },
  {
    "row": 239,
    "name": "평택 소사벌 푸르지오",
    "location": "경기 평택시",
    "count": 56,
    "date": "2016-11-24",
    "details": "83A(33)/83B(8)/83C(9)/83A1(4)/83B1(2)",
    "tel": "1800-0026"
  },
  {
    "row": 240,
    "name": "경희궁 롯데캐슬",
    "location": "서울 종로구",
    "count": 10,
    "date": "2016-11-25",
    "details": "59(2)/84(8)",
    "tel": "02-777-0688"
  },
  {
    "row": 241,
    "name": "목동파크자이",
    "location": "서울 양천구",
    "count": 34,
    "date": "2016-11-24",
    "details": "84A(24)/84B(2)/84C(8)",
    "tel": "1644-3007"
  },
  {
    "row": 242,
    "name": "용산지구 계룡리슈빌",
    "location": "광주 동구",
    "count": 57,
    "date": "2016-11-24",
    "details": "76A(13)/76B(4)/82A(1)/84A(19)/84B(10)/84C(10)",
    "tel": "062-651-0333"
  },
  {
    "row": 243,
    "name": "래미안 리오센트",
    "location": "서울 서초구",
    "count": 4,
    "date": "2016-11-29",
    "details": "59(1)/84A(1)/84B(1)/84C(1)",
    "tel": "02-451-3370"
  },
  {
    "row": 244,
    "name": "신안인스빌퍼스트리버",
    "location": "경기 남양주시",
    "count": 81,
    "date": "2016-11-30",
    "details": "84A(72)/84B(9)",
    "tel": "031-555-5090"
  },
  {
    "row": 245,
    "name": "서산 센트럴 코아루",
    "location": "충남 서산시",
    "count": 5,
    "date": "2016-11-30",
    "details": "64(2)/74A(1)/74C(1)/74D(1)",
    "tel": "1522-8810"
  },
  {
    "row": 246,
    "name": "고덕 파라곤",
    "location": "경기 평택시",
    "count": 48,
    "date": "2016-11-30",
    "details": "71A(21)/84B(27)",
    "tel": "1588-4585"
  },
  {
    "row": 247,
    "name": "힐스테이트 아티움시티",
    "location": "경남 창원시",
    "count": 111,
    "date": "2016-11-30",
    "details": "84A(37)/84B(37)/84C(37)",
    "tel": "055-285-0001"
  },
  {
    "row": 248,
    "name": "동탄2신도시 중흥S클래스 A-35블록",
    "location": "경기 화성시",
    "count": 43,
    "date": "2016-11-25",
    "details": "83A(35)/83B(8)",
    "tel": "031-374-2242"
  },
  {
    "row": 249,
    "name": "영암 중흥S클래스",
    "location": "전남 영암군",
    "count": 134,
    "date": "2016-11-25",
    "details": "59(76)/74(23)/84(35)",
    "tel": "1522-0648"
  },
  {
    "row": 250,
    "name": "연수파크자이",
    "location": "인천 연수구",
    "count": 92,
    "date": "2016-11-30",
    "details": "76A(14)/76B(11)/84A(38)/84B(29)",
    "tel": "1644-0442"
  },
  {
    "row": 251,
    "name": "태전파크자이",
    "location": "경기 광주시",
    "count": 60,
    "date": "2016-11-30",
    "details": "13BL59A(2)/59B(6)/59C(3)/59D(2)/60(5)/72A(3)/72B(3)/73(3)/84(2)/14BL59A(5)/59B(5)/59C(5)/59D(4)/72A(3)/72B(3)/73(3)/84(3)",
    "tel": "1522-7760"
  },
  {
    "row": 252,
    "name": "동천 더샵 이스트포레",
    "location": "경기 용인시",
    "count": 74,
    "date": "2016-12-01",
    "details": "78(32)/84A(25)/84B(17)",
    "tel": "031-265-0600"
  },
  {
    "row": 253,
    "name": "세종 더샵예미지",
    "location": "세종특별자치시",
    "count": 30,
    "date": "2016-12-06",
    "details": "M3BL59A(5)/59B(1)/84A(5)/84B(3)/L4BL59A(6)/59B(2)/59C(2)/72B(5)/75B(1)",
    "tel": "1644-1807"
  },
  {
    "row": 254,
    "name": "금호어울림 레이크 2차",
    "location": "경기 화성시",
    "count": 3,
    "date": "2016-12-01",
    "details": "74(1)/84A(1)/84B(1)",
    "tel": "031-8015-2466"
  },
  {
    "row": 255,
    "name": "사당 롯데캐슬 골든포레",
    "location": "서울 동작구",
    "count": 53,
    "date": "2016-12-07",
    "details": "49(2)/59A(8)/59B(9)/84A(4)/84B(8)/84C(18)/84C-1(3)/84D(1)",
    "tel": "1522-0076"
  },
  {
    "row": 256,
    "name": "세종 e편한세상 푸르지오",
    "location": "세종특별자치시",
    "count": 4,
    "date": "2016-12-12",
    "details": "59A(1)/84A(2)/84D(1)",
    "tel": "044-863-9980"
  },
  {
    "row": 257,
    "name": "울산 송정 한라비발디",
    "location": "울산 북구",
    "count": 67,
    "date": "2016-12-09",
    "details": "84A(46)/84B(12)/84C(9)",
    "tel": "1522-6760"
  },
  {
    "row": 258,
    "name": "송정KTX 2차 우방아이유쉘",
    "location": "광주 광산구",
    "count": 58,
    "date": "2016-12-08",
    "details": "84(17)/80(20)/70A(11)/70B(10)",
    "tel": "1577-2771"
  },
  {
    "row": 259,
    "name": "송산 대방노블랜드 2,3차",
    "location": "경기 화성시",
    "count": 113,
    "date": "2016-12-14",
    "details": "2차73A(7)/73B(7)/84A(11)/84B(11)/3차73A(9)/73B(9)/84A(17)/84B(30)/84C(12)",
    "tel": "1688-9700"
  },
  {
    "row": 260,
    "name": "e편한세상 춘천 한숲시티",
    "location": "강원 춘천시",
    "count": 116,
    "date": "2016-12-21",
    "details": "59(29)/74A(20)/74B(7)/84A(30)/84B(30)",
    "tel": "1899-2324"
  },
  {
    "row": 261,
    "name": "힐스테이트자이 논산",
    "location": "충남 논산시",
    "count": 15,
    "date": "2016-12-20",
    "details": "74A(4)/84A(7)/84B(2)/84C(2)",
    "tel": "041-736-0770"
  },
  {
    "row": 262,
    "name": "e편한세상 염창",
    "location": "서울 강서구",
    "count": 27,
    "date": "2016-12-28",
    "details": "55(2)/59A(2)/59B(2)/74(2)/84A(12)/84B(2)/84C(5)",
    "tel": "02-3661-2002"
  },
  {
    "row": 263,
    "name": "공주월송 A2블록",
    "location": "충남 공주시",
    "count": 1,
    "date": "2016-12-27",
    "details": "84(1)",
    "tel": "042-470-0726"
  },
  {
    "row": 264,
    "name": "어양 제일오투그란데 에버",
    "location": "전북 익산시",
    "count": 5,
    "date": "2016-12-29",
    "details": "84A(5)",
    "tel": "063-857-4272"
  },
  {
    "row": 265,
    "name": "동탄2아이파크",
    "location": "경기 화성시",
    "count": 32,
    "date": "2016-12-29",
    "details": "A-99BL84A(15)/A-100BL84A(17)",
    "tel": "031-373-5022"
  },
  {
    "row": 266,
    "name": "서청주파크자이",
    "location": "충북 청주시",
    "count": 40,
    "date": "2017-02-09",
    "details": "59(5)/74(10)/84A(19)/84B(6)",
    "tel": "1661-9005"
  },
  {
    "row": 267,
    "name": "오산시티자이2차",
    "location": "경기 오산시",
    "count": 101,
    "date": "2017-02-15",
    "details": "59A(13)/59B(19)/73(30)/84A(31)/84B(8)",
    "tel": "1644-0977"
  },
  {
    "row": 268,
    "name": "복수센트럴자이",
    "location": "대전 서구",
    "count": 82,
    "date": "2017-02-21",
    "details": "45(1)/59(33)/72A(3)/72B(5)/84A(13)/84B(11)/84C(16)",
    "tel": "1833-8652"
  },
  {
    "row": 269,
    "name": "영종하늘도시2차",
    "location": "인천 중구",
    "count": 150,
    "date": "2017-02-22",
    "details": "74A(21)/74B(7)/84A(85)/84B(10)/84C(27)",
    "tel": "032-746-6699"
  },
  {
    "row": 270,
    "name": "금강펜테리움1차",
    "location": "울산 북구",
    "count": 53,
    "date": "2017-02-22",
    "details": "84A(24)/84B(25)/84C(4)",
    "tel": "1899-7772"
  },
  {
    "row": 271,
    "name": "속초 서희스타힐스 더베이",
    "location": "강원 속초시",
    "count": 4,
    "date": "2017-02-22",
    "details": "84A(2)/84B(2)",
    "tel": "033-636-0232"
  },
  {
    "row": 272,
    "name": "e편한세상 춘천 한숲시티",
    "location": "강원 춘천시",
    "count": 124,
    "date": "2017-03-02",
    "details": "74A(39)/74B(14)/84A(36)/84B(35)",
    "tel": "1899-2324"
  },
  {
    "row": 273,
    "name": "안산 라프리모",
    "location": "경기 안산시",
    "count": 86,
    "date": "2017-03-02",
    "details": "74A(11)/74B(8)/84(67)",
    "tel": "031-411-9790"
  },
  {
    "row": 274,
    "name": "삼송3차 아이파크",
    "location": "경기 고양시",
    "count": 15,
    "date": "2017-02-23",
    "details": "84A(10)/84B(5)",
    "tel": "1670-3318"
  },
  {
    "row": 275,
    "name": "고덕신도시 자연&자이",
    "location": "경기 평택시",
    "count": 5,
    "date": "2017-03-07",
    "details": "84A(2)/84B(2)/84C(1)",
    "tel": "1644-2280"
  },
  {
    "row": 276,
    "name": "비전레이크 푸르지오",
    "location": "경기 평택시",
    "count": 47,
    "date": "2017-03-02",
    "details": "65(5)/78(10)/84A(20)/84B(12)",
    "tel": "031-653-0621"
  },
  {
    "row": 277,
    "name": "백련산 SK뷰 아이파크",
    "location": "서울 은평구",
    "count": 43,
    "date": "2017-03-02",
    "details": "59A(3)/59B(4)/59C(2)/84(34)",
    "tel": "02-6782-8282"
  },
  {
    "row": 278,
    "name": "샬레아넬리스",
    "location": "인천 부평구",
    "count": 8,
    "date": "2017-03-08",
    "details": "59C(2)/84A(2)/84B(2)/84C(2)",
    "tel": "032-582-7779"
  },
  {
    "row": 279,
    "name": "어양 라온프라이빗",
    "location": "전북 익산시",
    "count": 25,
    "date": "2017-03-09",
    "details": "1단지 84(11)/2단지 84(14)",
    "tel": "063-831-5001"
  },
  {
    "row": 280,
    "name": "시티프라디움",
    "location": "광주 남구",
    "count": 116,
    "date": "2017-03-15",
    "details": "84A(64)/84B(17)/84C(21)/84D(14)",
    "tel": "062-369-9678"
  },
  {
    "row": 281,
    "name": "흥덕파크자이",
    "location": "충북 청주시",
    "count": 61,
    "date": "2017-03-22",
    "details": "66(3)/77(9)/84A(20)/84B(20)/84C(9)",
    "tel": "043-230-0007"
  },
  {
    "row": 282,
    "name": "금성백조 예미지",
    "location": "충남 보령시",
    "count": 48,
    "date": "2017-03-16",
    "details": "66(15)/74(5)/84A(18)/84B(9)/84T(1)",
    "tel": "1899-2006"
  },
  {
    "row": 283,
    "name": "제일풍경채 센트럴",
    "location": "경기 평택시",
    "count": 12,
    "date": "2017-03-27",
    "details": "84A(6)/84B(4)/84C(2)",
    "tel": "1661-5562"
  },
  {
    "row": 284,
    "name": "해남파크사이드2차",
    "location": "전남 해남군",
    "count": 20,
    "date": "2017-03-30",
    "details": "75(5)/84A(10)/84B(5)",
    "tel": "061-534-0010"
  },
  {
    "row": 285,
    "name": "동원로얄듀크 비스타",
    "location": "경기 화성시",
    "count": 18,
    "date": "2017-03-24",
    "details": "84A(12)/84B(6)",
    "tel": "1522-2367"
  },
  {
    "row": 286,
    "name": "e편한세상 양주신도시 3차",
    "location": "경기 양주시",
    "count": 156,
    "date": "2017-03-28",
    "details": "66A(20)/66B(6)/74A(28)/74B(9)/84A(70)/84B(23)",
    "tel": "031-821-9300"
  },
  {
    "row": 287,
    "name": "전주 효천 우미린",
    "location": "전북 전주시",
    "count": 111,
    "date": "2017-03-22",
    "details": "84A(69)/84B(30)/84C(12)",
    "tel": "1588-9950"
  },
  {
    "row": 288,
    "name": "라온프라이빗 스카이파크",
    "location": "경북 포항시",
    "count": 36,
    "date": "2017-04-05",
    "details": "59A(12)/59B(3)/84A(10)/84B(11)",
    "tel": "054-278-5900"
  },
  {
    "row": 289,
    "name": "시티프라디움",
    "location": "경남 진주시",
    "count": 85,
    "date": "2017-04-05",
    "details": "84A(43)/84B(25)/84C(17)",
    "tel": "055-762-0869"
  },
  {
    "row": 290,
    "name": "의정부민락2 A6블록",
    "location": "경기 의정부시",
    "count": 7,
    "date": "2017-04-10",
    "details": "51A(2)/59A(4)/59B(1)",
    "tel": "02-2017-4320"
  },
  {
    "row": 291,
    "name": "시흥은계 B-1블록",
    "location": "경기 시흥시",
    "count": 1,
    "date": "2017-04-13",
    "details": "074.000H(1)",
    "tel": "02-2026-9476"
  },
  {
    "row": 292,
    "name": "부천 중동 효성해링턴 플레이스",
    "location": "경기 부천시",
    "count": 23,
    "date": "2017-04-06",
    "details": "59A(6)/59B(2)/75A(5)/75B(5)/84(5)",
    "tel": "032-662-7900"
  },
  {
    "row": 293,
    "name": "힐스테이트 김해",
    "location": "경남 김해시",
    "count": 7,
    "date": "2017-04-13",
    "details": "59A(2)/84A(5)",
    "tel": "1800-9616"
  },
  {
    "row": 294,
    "name": "힐스테이트 킨텍스 레이크뷰",
    "location": "경기 고양시",
    "count": 26,
    "date": "2017-04-13",
    "details": "84A(12)/84B(7)/84C(7)",
    "tel": "1899-0078"
  },
  {
    "row": 295,
    "name": "힐스테이트 세종 리버파크",
    "location": "세종특별자치시",
    "count": 6,
    "date": "2017-04-19",
    "details": "H3BL 84B(1)/H3BL 84C(1)/H3BL 84D(1)/H4BL 84A(1)/H4BL 84B(1)/H4BL 84C(1)",
    "tel": "1811-0880"
  },
  {
    "row": 296,
    "name": "화정엘리체 퍼스티지",
    "location": "광주 서구",
    "count": 14,
    "date": "2017-04-19",
    "details": "84A(10)/84B(4)",
    "tel": "062-573-4400"
  },
  {
    "row": 297,
    "name": "강릉유천 B2블록",
    "location": "강원 강릉시",
    "count": 2,
    "date": "2017-05-08",
    "details": "84(1)/74(1)",
    "tel": "033-610-5111"
  },
  {
    "row": 298,
    "name": "시흥장현 B-1블록",
    "location": "경기 시흥시",
    "count": 1,
    "date": "2017-05-05",
    "details": "84A(1)",
    "tel": "02-2026-9482"
  },
  {
    "row": 299,
    "name": "일광자이푸르지오",
    "location": "부산 기장군",
    "count": 7,
    "date": "2017-05-26",
    "details": "5BL 84A(1)/5BL84C(1)/6BL 75(1)/6BL 84A(1)/6BL 84B(1)/6BL 84C(1)/6BL 84E(1)",
    "tel": "1833-7002"
  },
  {
    "row": 300,
    "name": "고덕 롯데캐슬 베네루체",
    "location": "서울 강동구",
    "count": 82,
    "date": "2017-05-22",
    "details": "59A(6)/84A(39)/84B(37)",
    "tel": "1811-2277"
  },
  {
    "row": 301,
    "name": "인천 논현 푸르지오",
    "location": "인천 남동구",
    "count": 73,
    "date": "2017-05-22",
    "details": "61A(37)/61B(7)/61C(8)/70A(11)/70B(10)",
    "tel": "1800-0257"
  },
  {
    "row": 302,
    "name": "한강메트로자이",
    "location": "경기 김포시",
    "count": 325,
    "date": "2017-05-23",
    "details": "1단지59(7)/74(40)/84A(4)/84B(8)/84C(43)/2단지59(50)/68T(6)/74(42)/84T(4)/84A(60)/84B(16)/84C(36)/84D(9)",
    "tel": "1544-5557"
  },
  {
    "row": 303,
    "name": "보라매 SK VIEW",
    "location": "서울 영등포구",
    "count": 65,
    "date": "2017-05-18",
    "details": "59A(2)/59B(4)/84A(37)/84B(4)/84C(18)",
    "tel": "02-812-0300"
  },
  {
    "row": 304,
    "name": "e편한세상 일광",
    "location": "부산 기장군",
    "count": 2,
    "date": "2017-05-22",
    "details": "74B(1)/84A(1)",
    "tel": "051-744-8855"
  },
  {
    "row": 305,
    "name": "평택고덕 A-10BL",
    "location": "경기 평택시",
    "count": 2,
    "date": "2017-05-16",
    "details": "84(2)",
    "tel": "031-612-8783"
  },
  {
    "row": 306,
    "name": "S-2블록 호반베르디움",
    "location": "경기 성남시",
    "count": 76,
    "date": "2017-05-25",
    "details": "84A(68)/84B(8)",
    "tel": "1566-8782"
  },
  {
    "row": 307,
    "name": "반도유보라 더스마트",
    "location": "경기 안양시",
    "count": 19,
    "date": "2017-05-18",
    "details": "59A(7)/59B(2)/61(10)",
    "tel": "031-429-9555"
  },
  {
    "row": 308,
    "name": "그랑시티자이2차",
    "location": "경기 안산시",
    "count": 211,
    "date": "2017-05-25",
    "details": "1회59(8)/84A(17)/84B(8)/84C(8)/84D(27)/84E(13)/2회59(9)/74(13)/84A(43)/84B(8)/84C(4)/84D(31)/84E(22)",
    "tel": "1522-6600"
  },
  {
    "row": 309,
    "name": "영종하늘도시 KCC스위첸",
    "location": "인천 중구",
    "count": 72,
    "date": "2017-05-19",
    "details": "60(6)/73A(5)/73B(5)/84A(23)/84B(14)/84C(11)/84D(8)",
    "tel": "032-746-9399"
  },
  {
    "row": 310,
    "name": "e편한세상 추동공원2차",
    "location": "경기 의정부시",
    "count": 177,
    "date": "2017-05-24",
    "details": "59A(33)/59B(11)/59C(11)/74A(47)/74B(15)/74C(19)/84A(21)/84B(20)",
    "tel": "031-875-6100"
  },
  {
    "row": 311,
    "name": "두호 SK뷰 푸르지오",
    "location": "경북 포항시",
    "count": 60,
    "date": "2017-06-01",
    "details": "74A(14)/74B(1)/84A(19)/84B(26)",
    "tel": "054-273-9918"
  },
  {
    "row": 312,
    "name": "군포송정 S-1블록",
    "location": "경기 군포시",
    "count": 2,
    "date": "2017-06-13",
    "details": "51A(1)/74A(1)",
    "tel": "031-250-4980"
  },
  {
    "row": 313,
    "name": "중흥S클래스 센트럴시티",
    "location": "경남 진주시",
    "count": 34,
    "date": "2017-05-29",
    "details": "C2(84A 5)C3(84A 7) C3(84B 5) C4(84A 12) C4(84B 5)",
    "tel": "055-763-1620"
  },
  {
    "row": 314,
    "name": "2블럭 우미린",
    "location": "강원 양양군",
    "count": 29,
    "date": "2017-05-31",
    "details": "2(75A 12) 2(84A 15) 2(84B 2)",
    "tel": "033-638-8700"
  },
  {
    "row": 315,
    "name": "신안인스빌 퍼스트포레",
    "location": "경기 남양주시",
    "count": 127,
    "date": "2017-05-31",
    "details": "B-3(84A 116) B-3(84B 11)",
    "tel": "031-555-5090"
  },
  {
    "row": 316,
    "name": "두정역 효성해링턴 플레이스",
    "location": "천안시 두정동",
    "count": 247,
    "date": "2017-06-05",
    "details": "51A(23) 51B(4) 59A(85) 59B(34) 59C(17) 59D(13) 71A(22) 71B(11) 71C(8) 84A(18) 84B(6) 84C(6)",
    "tel": "041-555-2586"
  },
  {
    "row": 317,
    "name": "판교 더샵 퍼스트파크",
    "location": "경기 성남시",
    "count": 56,
    "date": "2017-06-08",
    "details": "84ABC(56)",
    "tel": "031-830-0670"
  },
  {
    "row": 318,
    "name": "금강펜페리움 센트럴파크3",
    "location": "경기 군포시",
    "count": 75,
    "date": "2017-06-08",
    "details": "C-1BL(76 20) C-1BL(84A 40) C-1BL(84B 15)",
    "tel": "1899-3588"
  },
  {
    "row": 319,
    "name": "e편한세상 신봉담",
    "location": "경기 화성시",
    "count": 7,
    "date": "2017-06-16",
    "details": "A-1블록(51 2) A-1블록(59A 4) A-1블록(59B 1)",
    "tel": "031-293-0898"
  },
  {
    "row": 320,
    "name": "e편한세상 구리수택",
    "location": "경기 구리시",
    "count": 73,
    "date": "2017-06-16",
    "details": "59A(22) 59B(6) 74(14) 84A(15) 84B(16)",
    "tel": "031-565-0733"
  },
  {
    "row": 321,
    "name": "송도랜드마크시티 센트럴 더샵",
    "location": "경기 인천시",
    "count": 166,
    "date": "2017-06-16",
    "details": "M1블럭(84A 112) M1블럭(84B 36) M1(84C 18)",
    "tel": "1661-0026"
  },
  {
    "row": 322,
    "name": "지축지구 B4블럭",
    "location": "경기 고양시",
    "count": 85,
    "date": "2017-06-16",
    "details": "B4블럭(75 17) B4블럭(84A 34) B4블럭(84B 34)",
    "tel": "02-381-6060"
  },
  {
    "row": 323,
    "name": "고덕 센트럴 아이파크",
    "location": "서울 강동구",
    "count": 68,
    "date": "2017-06-21",
    "details": "59A(4) 59B(1) 59C(10) 74A(3) 74B(2) 84A(22) 84B(26)",
    "tel": "1566-7443"
  },
  {
    "row": 324,
    "name": "제주 노형 해모로 루엔",
    "location": "제주 노형동",
    "count": 5,
    "date": "2017-06-21",
    "details": "59A(3) 76(1) 84(1)",
    "tel": "064-727-1330"
  },
  {
    "row": 325,
    "name": "월계역 인덕 아이파크",
    "location": "서울 노원구",
    "count": 56,
    "date": "2017-06-21",
    "details": "월계2주택(59A 12) 월계2주택(84A 16) 월계2주택(84B 24) 월계2주택(84C 4)",
    "tel": "02-903-4800"
  },
  {
    "row": 326,
    "name": "청라 한신더휴 호수공원",
    "location": "인천시 서구",
    "count": 88,
    "date": "2017-06-26",
    "details": "A30블록(75 15) A30블록(84A 32) A30블록(84B 16) A30블록(84C 25)",
    "tel": "1599-0339"
  },
  {
    "row": 327,
    "name": "부산민락동 e편한세상오션테라스",
    "location": "부산 연수구",
    "count": 53,
    "date": "2017-07-03",
    "details": "지축B3BL(76 2) 지축B3BL(84A 27) 지축B3BL(84B 24)",
    "tel": "02-1588-1662"
  },
  {
    "row": 328,
    "name": "지축역 반도유보라",
    "location": "경기 고양시",
    "count": 124,
    "date": "2017-07-05",
    "details": "74A(4) 74B(27) 84A(37) 84B(48) 84C(8)",
    "tel": "051-752-1101"
  },
  {
    "row": 329,
    "name": "장성 푸르지오",
    "location": "경북 포항시",
    "count": 18,
    "date": "2017-07-05",
    "details": "84(18)",
    "tel": "1899-9222"
  },
  {
    "row": 330,
    "name": "부안 봉덕 오투그란데",
    "location": "전북 부안군",
    "count": 53,
    "date": "2017-07-06",
    "details": "59A(15) 59B(1) 84A(26) 84B(6) 84C(5)",
    "tel": "063-582-5800"
  },
  {
    "row": 331,
    "name": "원주기업도시 5블럭",
    "location": "강원 원주시",
    "count": 51,
    "date": "2017-07-07",
    "details": "75(9) 84A(24) 84B(14) 84C(4)",
    "tel": "033-764-5500"
  },
  {
    "row": 332,
    "name": "부안 라온 프라이빗",
    "location": "전북 부안군",
    "count": 47,
    "date": "2017-07-07",
    "details": "59A(12) 59B(2) 84A(24) 84B(5) 84C(4)",
    "tel": "063-582-5800"
  },
  {
    "row": 333,
    "name": "원주기업도시 6블럭",
    "location": "강원 원주시",
    "count": 34,
    "date": "2017-07-07",
    "details": "84A(29)  84B(5)",
    "tel": "033-764-5500"
  },
  {
    "row": 334,
    "name": "서울 항동1블럭 중흥S클래스",
    "location": "서울 구로구",
    "count": 34,
    "date": "2017-07-11",
    "details": "84A(29) 84B(5)",
    "tel": "063-581-7775"
  },
  {
    "row": 335,
    "name": "의정부 장암 더샵",
    "location": "경기 의정부",
    "count": 48,
    "date": "2017-07-12",
    "details": "25(2)/40(5)/59(2)84A(25)/84B(3)/84C(7)/84D(2)/84E(2)",
    "tel": "1522-4334"
  },
  {
    "row": 336,
    "name": "신길센트럴자이",
    "location": "서울시 영등포구",
    "count": 43,
    "date": "2017-07-12",
    "details": "52(1),59A(11),59B(5),59C(2),75(2),84A(9),84B(7),84C(2),84D(4)",
    "tel": "1544-7642"
  },
  {
    "row": 337,
    "name": "김해 주촌 두산위브더제니스",
    "location": "경남 진해시",
    "count": 85,
    "date": "2017-07-13",
    "details": "67(6),77A(13),77B(15),84(51)",
    "tel": "1522-8500"
  },
  {
    "row": 338,
    "name": "상계역 센트럴 푸르지오",
    "location": "서울 노원구",
    "count": 43,
    "date": "2017-07-13",
    "details": "48(1),59A(21),59B(3),84A(10),84B(8)",
    "tel": "1800-3846"
  },
  {
    "row": 339,
    "name": "DMC에코자이",
    "location": "서울 서대문구",
    "count": 46,
    "date": "2017-07-14",
    "details": "59A(16),59B(3),72A(3)72B(6),84A(17),84B(6)/84C(1)",
    "tel": "1555-0470"
  },
  {
    "row": 340,
    "name": "호반베르디움 S-2블록",
    "location": "경기 성남시",
    "count": 76,
    "date": "2017-07-14",
    "details": "84A(68)/84B(8)",
    "tel": "1566-8782"
  },
  {
    "row": 341,
    "name": "공덕SK 리더스뷰",
    "location": "서울 마포구",
    "count": 18,
    "date": "2017-07-19",
    "details": "84A(14)/84B(4)",
    "tel": "02-578-0255"
  },
  {
    "row": 342,
    "name": "두산 알프하임",
    "location": "경기 남양주시",
    "count": 270,
    "date": "2017-07-21",
    "details": "59A(43)/59B(5)/66A(12)/72A(51)/72B(22)/79A(23)/79B(7)/84A(58)/84B(50)",
    "tel": "1522-3400"
  },
  {
    "row": 343,
    "name": "유성구 반석더샵",
    "location": "대전 유성구",
    "count": 8,
    "date": "2017-07-21",
    "details": "73A(2)/73B(1)/84A(3)/84B(2)",
    "tel": "1661-0073"
  },
  {
    "row": 344,
    "name": "남양뉴타운3차 시티프라디움",
    "location": "경기 화성시",
    "count": 43,
    "date": "2017-08-02",
    "details": "82A(23)/82B(8)/82C(12)",
    "tel": "1644-5331"
  },
  {
    "row": 345,
    "name": "행복도시2-1생활권 M3블록",
    "location": "세종특별자치시",
    "count": 2,
    "date": "2017-08-02",
    "details": "M3블록(59A 1) M3블록(74B 1)",
    "tel": "1600-1004"
  },
  {
    "row": 346,
    "name": "이수역리가",
    "location": "서울시 동작구",
    "count": 16,
    "date": "2017-08-08",
    "details": "84A(6)/84B(7)/84C(1)/84D(1)/84E(1)/84F(1)",
    "tel": "02-599-1800"
  },
  {
    "row": 347,
    "name": "더샵스카이타워 8-5BL",
    "location": "인천시 남구",
    "count": 57,
    "date": "2017-08-09",
    "details": "74C(22)/84C(29)/84D(6)",
    "tel": "032-883-7484"
  },
  {
    "row": 348,
    "name": "더샵 스카이타워 8-7BL",
    "location": "인천시 남구",
    "count": 160,
    "date": "2017-08-09",
    "details": "74A(58)/74B(6)/84A(53)/84B(13)",
    "tel": "032-883-7484"
  },
  {
    "row": 349,
    "name": "반도우보라 아이비파크1-BL",
    "location": "강원도 원주",
    "count": 54,
    "date": "2017-08-09",
    "details": "1-2(59A 17)/1-2(59B 7)/1-2(84A 18)/1-2(84B 9)/1-2(84C 3)",
    "tel": "02-3011-2700"
  },
  {
    "row": 350,
    "name": "반도유보라 아이비파크 2-2BL",
    "location": "강원도 원주",
    "count": 78,
    "date": "2017-08-09",
    "details": "2-2(59A 32)/2-2(59B 3)/2-2(84A 26)/2-2(84B 12)/2-2(84C 5)",
    "tel": "02-3011-2700"
  },
  {
    "row": 351,
    "name": "충주호암B-7",
    "location": "충북 충주시",
    "count": 1,
    "date": "2017-08-09",
    "details": "B-7(84A 1)",
    "tel": "043-290-3814"
  },
  {
    "row": 352,
    "name": "이천마장택지지구",
    "location": "경기도 이천시",
    "count": 44,
    "date": "2017-08-11",
    "details": "B3(44)",
    "tel": "1566-0991"
  },
  {
    "row": 353,
    "name": "익산 수도산 코아루 이지움",
    "location": "전라북도 익산시",
    "count": 32,
    "date": "2017-08-11",
    "details": "78A(5)/78B(6)/78C(8)/78D(13)",
    "tel": "1522-4482"
  },
  {
    "row": 354,
    "name": "일광신도시 EG the1",
    "location": "부산광역시 기장군",
    "count": 65,
    "date": "2017-08-11",
    "details": "59A(58)/59B(7)",
    "tel": "1855-0653"
  },
  {
    "row": 355,
    "name": "모아미래도 파크힐스",
    "location": "경기도 광주",
    "count": 57,
    "date": "2017-08-21",
    "details": "74A(11)/74B(5)/84A(14)/84B(17)/84C(10)",
    "tel": "1577-1299"
  },
  {
    "row": 356,
    "name": "다산자이 아이비플레이스",
    "location": "경기도 남양주시",
    "count": 25,
    "date": "2017-08-22",
    "details": "84A(11)/84B(7)/84C(7)",
    "tel": "1644-1994"
  },
  {
    "row": 357,
    "name": "삼천포 금성백조 예미지",
    "location": "경상남도 사천시",
    "count": 22,
    "date": "2017-08-22",
    "details": "59B(1)/59C(2)/84A(7)/84B(11)",
    "tel": "1899-0023"
  },
  {
    "row": 358,
    "name": "첨단 금호어울림 더 테라스",
    "location": "광주광역시 광산구",
    "count": 46,
    "date": "2017-08-22",
    "details": "84A(22)/84B(12)/84B-1(12)",
    "tel": "1577-3322"
  },
  {
    "row": 359,
    "name": "명지 더샵 퍼스트월드",
    "location": "부산광역시 강서구",
    "count": 323,
    "date": "2017-08-22",
    "details": "3-1(84B 20)/2(80A 12)/2(80A 75)/2(84A 75)/2(84B 29)/3-1(80A 26)/3-1(80B 7)/3-1(84A 79)",
    "tel": "1644-9050"
  },
  {
    "row": 360,
    "name": "휘경 해모로 프레스티지",
    "location": "동대문구 휘경동",
    "count": 16,
    "date": "2017-08-22",
    "details": "59A(3)/59B(5)/84A(5)/84B(2)/84C(1)",
    "tel": "02-960-7777"
  },
  {
    "row": 361,
    "name": "현대 헤리엇",
    "location": "삼송역",
    "count": 35,
    "date": "2017-08-25",
    "details": "59A(28)/59B(7)",
    "tel": "1588-8246"
  },
  {
    "row": 362,
    "name": "한양수장딘 사가정파크",
    "location": "서울 면목동",
    "count": 24,
    "date": "2017-08-25",
    "details": "23A(1)/23C(1)/74A(4)/74B(1)/74C(3)/74D(1)/84A(3)/84B(2)/84C(1)/84D(2)/84E(2)/84F(3)",
    "tel": "1877-7397"
  },
  {
    "row": 363,
    "name": "신발포센트럴자이",
    "location": "서울특별시 서초구",
    "count": 10,
    "date": "2017-08-25",
    "details": "59A(5)/59B(1)/59C(1)/84B(1)/84C(2)",
    "tel": "1661-5044"
  },
  {
    "row": 364,
    "name": "한강메트로자이",
    "location": "경기도 김포",
    "count": 28,
    "date": "2017-08-25",
    "details": "84A(13)/84B(5)/84C(10)",
    "tel": "1544-5557"
  },
  {
    "row": 365,
    "name": "의정부고산",
    "location": "경기도 의정부",
    "count": 6,
    "date": "2017-08-29",
    "details": "S-4(59Aa 1)/S-4(59Ab 1)/S-5(59A 2)/S-5(74B 1)/S-5(84A 1)",
    "tel": "02-2017-2318"
  },
  {
    "row": 366,
    "name": "래미안강남포레스트",
    "location": "서울 개포동",
    "count": 1,
    "date": "2017-08-29",
    "details": "59A(1)",
    "tel": "02-401-6711"
  },
  {
    "row": 367,
    "name": "화성동탄",
    "location": "경기도 화성시",
    "count": 4,
    "date": "2017-08-29",
    "details": "A83(59A 1)/A83(75B 1)/A89(59A1 1)/A89(84B 1)",
    "tel": "031-8077-7916"
  },
  {
    "row": 368,
    "name": "대구대곡2 BBL",
    "location": "대구 달서구",
    "count": 1,
    "date": "2017-08-31",
    "details": "59A(1)",
    "tel": "053-603-2552"
  },
  {
    "row": 369,
    "name": "대구옥포S-1BL",
    "location": "대구 달성군",
    "count": 2,
    "date": "2017-08-31",
    "details": "74A(1)/84A(1)",
    "tel": "053-603-2552"
  },
  {
    "row": 370,
    "name": "래미안 DMC",
    "location": "서울 서대문구",
    "count": 49,
    "date": "2017-09-04",
    "details": "59(6)/84A(9)/84B(6)/84C(14)/84D(8)/84E(6)",
    "tel": "02-766-5990"
  },
  {
    "row": 371,
    "name": "고양지축공공주택지구B2",
    "location": "경기도 고양시",
    "count": 108,
    "date": "2017-09-04",
    "details": "72A(20)/72B(20)/84A(34)/84B(34)",
    "tel": "02-591-1100"
  },
  {
    "row": 372,
    "name": "한양수자인 와이즈파크",
    "location": "서울 구로구",
    "count": 51,
    "date": "2017-09-04",
    "details": "76A(16)/76B(4)/84A(16)/84B(9)/84C(6)",
    "tel": "1588-6525"
  },
  {
    "row": 373,
    "name": "감일스윗시티 A4BL",
    "location": "하남시 감일동",
    "count": 2,
    "date": "2017-09-06",
    "details": "A4(59 1)/A4(74 1)",
    "tel": "031-790-9311"
  },
  {
    "row": 374,
    "name": "감일스위시티 A1BL",
    "location": "하남시 감일동",
    "count": 1,
    "date": "2017-09-06",
    "details": "A1(59 1)",
    "tel": "031-790-9311"
  },
  {
    "row": 375,
    "name": "센트럴 아이파크",
    "location": "서울특별시 서초",
    "count": 32,
    "date": "2017-09-08",
    "details": "80A(13)/80A-1(10)/80B(3)/80C(3)/80D(3)",
    "tel": "1600-3220"
  },
  {
    "row": 376,
    "name": "동남택지개발지구 B1",
    "location": "청주시",
    "count": 79,
    "date": "2017-09-08",
    "details": "84A(27)/84B(20)/84C(20)/84D(12)",
    "tel": "1644-2160"
  },
  {
    "row": 377,
    "name": "동남택지개발지구 B2",
    "location": "청주시",
    "count": 58,
    "date": "2017-09-08",
    "details": "84A(22)/84B(4)/84C(6)/84D(14)/84E(7)/84F(5)",
    "tel": "1644-2160"
  },
  {
    "row": 378,
    "name": "대명루첸 리버파크",
    "location": "경기도 남양주시",
    "count": 82,
    "date": "2017-09-11",
    "details": "59A(12)/59B(57)/59C(13)",
    "tel": "1566-1211"
  },
  {
    "row": 379,
    "name": "전주효천A3",
    "location": "전주시 완산구",
    "count": 1,
    "date": "2017-09-11",
    "details": "84C(1)",
    "tel": "063-230-6107"
  },
  {
    "row": 380,
    "name": "오페라 트루엘 시민의 숲",
    "location": "대구 북구",
    "count": 30,
    "date": "2017-09-12",
    "details": "59(9)/74(4)/75(2)/84A(5)/84B(11)",
    "tel": "1670-5595"
  },
  {
    "row": 381,
    "name": "신창 유탑 유블레스 리버뷰",
    "location": "광주광역시 광산구",
    "count": 20,
    "date": "2017-09-12",
    "details": "84A(15)/84B(3)/84C(1)/84D(1)",
    "tel": "1899-1065"
  },
  {
    "row": 382,
    "name": "일성트루엘 더퍼스트",
    "location": "강원도 춘천시",
    "count": 2,
    "date": "2017-09-12",
    "details": "59(1)/68A(1)",
    "tel": "1544-1811"
  },
  {
    "row": 383,
    "name": "조양동 휴먼빌",
    "location": "강원도 속초시",
    "count": 37,
    "date": "2017-09-25",
    "details": "79(10)/84(27)",
    "tel": "033-368-9494"
  },
  {
    "row": 384,
    "name": "면목 라온프라이빗",
    "location": "서울특별시 중랑구",
    "count": 22,
    "date": "2017-09-25",
    "details": "59A(2)/59B(1)/59C(1)/59D(1)/68(3)/84A(5)/84B(1)/84C(8)",
    "tel": "02-435-0245"
  },
  {
    "row": 385,
    "name": "부평 아이파크",
    "location": "인천광역시 부평구",
    "count": 22,
    "date": "2017-09-25",
    "details": "69.19(3)/69.57(10)/69.93(3)/84.58(3)/84.70(3)",
    "tel": "1600-0353"
  },
  {
    "row": 386,
    "name": "장현리슈빌",
    "location": "경기도 시흥시",
    "count": 65,
    "date": "2017-09-25",
    "details": "69(9)/84A(28)/84B(14)/84C(14)",
    "tel": "042-480-7114"
  },
  {
    "row": 387,
    "name": "강진 남양휴튼 1단지",
    "location": "전라남도 강진구",
    "count": 8,
    "date": "2017-10-10",
    "details": "84(8)",
    "tel": "062-652-5678"
  },
  {
    "row": 388,
    "name": "강진 남양휴튼 2단지",
    "location": "전라남도 강진군",
    "count": 9,
    "date": "2017-10-10",
    "details": "84(9)",
    "tel": "062-652-5678"
  },
  {
    "row": 389,
    "name": "우산동 센트레빌",
    "location": "광주광역시 서구",
    "count": 20,
    "date": "2017-10-10",
    "details": "69(3)/84A(5)/84A-1(6)/84B(6)",
    "tel": "062-383-6555"
  },
  {
    "row": 390,
    "name": "동원로얄듀크",
    "location": "경기도 시흥시",
    "count": 44,
    "date": "2017-10-10",
    "details": "73A(11)/84A(33)",
    "tel": "1899-1329"
  },
  {
    "row": 391,
    "name": "꿈에그린",
    "location": "서울특별시 영등포",
    "count": 14,
    "date": "2017-10-10",
    "details": "59(4)/84(10)",
    "tel": "1566-8482"
  },
  {
    "row": 392,
    "name": "센트럴 아이파크",
    "location": "서울특별시 면목동",
    "count": 155,
    "date": "2017-10-10",
    "details": "59A(10)/59B(5)/84A(54)/84A1(54)/84A2(3)/84B(29)",
    "tel": "02-433-0066"
  },
  {
    "row": 393,
    "name": "고양향동A-3",
    "location": "경기도 고양시",
    "count": 2,
    "date": "2017-10-10",
    "details": "59A(1)/59C(1)",
    "tel": "031-960-9886"
  },
  {
    "row": 394,
    "name": "동탄2신도시 A86",
    "location": "경기도 화성시",
    "count": 5,
    "date": "2017-10-10",
    "details": "84A(3)/84B(1)/84C(1)",
    "tel": "1599-5853"
  },
  {
    "row": 395,
    "name": "모아엘가 에듀파크",
    "location": "전라남도 목포시",
    "count": 25,
    "date": "2017-10-12",
    "details": "59A(23)/59B(2)",
    "tel": "061-283-8111"
  },
  {
    "row": 396,
    "name": "운정 화성파크드림",
    "location": "경기도 파주시",
    "count": 100,
    "date": "2017-10-12",
    "details": "36(3)/74(22)/74P(1)/84A(40)/84AP(2)/84B(21)/84C(11)",
    "tel": "031-942-8922"
  },
  {
    "row": 397,
    "name": "두산위브 2차",
    "location": "서울특별시 서대문구",
    "count": 7,
    "date": "2017-10-12",
    "details": "56T(1)/59(6)",
    "tel": "02-354-2600"
  },
  {
    "row": 398,
    "name": "대명루첸 리버파크",
    "location": "경기도 남양주시",
    "count": 88,
    "date": "2017-10-16",
    "details": "59A(12)/59B(57)/59C(13)/59D(6)",
    "tel": "1566-1211"
  },
  {
    "row": 399,
    "name": "한신더휴",
    "location": "부산광역시 기장군",
    "count": 126,
    "date": "2017-10-16",
    "details": "8블록(59 14)/9블록(59 18)/8블록(75A 7)/9블록(75A 9)/8블록(75B 6)/9블록(75B 9)/8블록(84A 17)/9블록(84A 20)/8블록(84B 9)/9블록(84B 17)",
    "tel": "1899-5598"
  },
  {
    "row": 400,
    "name": "계림8구역 그랜드센트럴",
    "location": "광주광역시 동구",
    "count": 21,
    "date": "2017-10-17",
    "details": "59A(3)/59B(2)/75A(5)/75B(3)/75C(3)/84A(4)/84B(3)/84C(3)",
    "tel": "062-372-2336"
  },
  {
    "row": 401,
    "name": "녹번역 e편한세상 캐슬",
    "location": "서울특별시 은평구",
    "count": 49,
    "date": "2017-10-17",
    "details": "44(2)/59A(5)/59B(4)/59C(1)/84A(9)/84B(4)/84C(16)/84D(8)",
    "tel": "1577-5563"
  },
  {
    "row": 402,
    "name": "천안불당 금호어울림",
    "location": "충남 천안시",
    "count": 21,
    "date": "2017-10-19",
    "details": "74A(2)/74B(5)/84C(14)",
    "tel": "041-556-0227"
  },
  {
    "row": 403,
    "name": "연산 롯데캐슬 골드포레",
    "location": "부산광역시 연제구",
    "count": 13,
    "date": "2017-10-19",
    "details": "72(4)/84A(5)/84B(4)",
    "tel": "051-866-7100"
  },
  {
    "row": 404,
    "name": "힐스테이트연제",
    "location": "광주광역시 북구",
    "count": 118,
    "date": "2017-10-19",
    "details": "82(21)/82A(89)/84B(8)",
    "tel": "1577-1488"
  },
  {
    "row": 405,
    "name": "미소지움 더뷰",
    "location": "강원도 속초시",
    "count": 35,
    "date": "2017-10-19",
    "details": "74(16)/84A(16)/84B(3)",
    "tel": "1522-3417"
  },
  {
    "row": 406,
    "name": "고덕 아르테온",
    "location": "서울특별시 강동구",
    "count": 19,
    "date": "2017-10-23",
    "details": "59A(1)/84A(7)/84B(5)/84C(3)/84D(3)",
    "tel": "1544-9333"
  },
  {
    "row": 407,
    "name": "송도SK VIEW",
    "location": "인천광역시 연수구",
    "count": 3,
    "date": "2017-10-23",
    "details": "84A(2)/84B(1)",
    "tel": "1644-4097"
  },
  {
    "row": 408,
    "name": "이천마장택지지구 B4",
    "location": "경기도 이천시",
    "count": 11,
    "date": "2017-10-23",
    "details": "82.92A(10)/82.98A(1)",
    "tel": "1566-0997"
  },
  {
    "row": 409,
    "name": "광안자이",
    "location": "부산광역시 수영구",
    "count": 4,
    "date": "2017-10-23",
    "details": "73(3)/84A(1)",
    "tel": "1644-4097"
  },
  {
    "row": 410,
    "name": "서면 아이파크",
    "location": "부산광역시 진구",
    "count": 20,
    "date": "2017-10-23",
    "details": "1단지(42 1)/1단지(52 2)/2단지(52 1)/1단지(59 7)/2단지(59 2)/1단지(72A 3)/1단지(72C 2)/1단지(84B 3)",
    "tel": "051-781-2144"
  },
  {
    "row": 411,
    "name": "B-4블록 제일풍경채",
    "location": "경기도 시흥시",
    "count": 8,
    "date": "2017-10-23",
    "details": "72(1)/72A(1)/84(6)",
    "tel": "1577-2149"
  },
  {
    "row": 412,
    "name": "B-4블록 제일풍경채",
    "location": "경기도 시흥시",
    "count": 2,
    "date": "2017-10-24",
    "details": "72B(2)",
    "tel": "1577-2149"
  },
  {
    "row": 413,
    "name": "의왕 장안지구 파크2차",
    "location": "경기도 의왕시",
    "count": 59,
    "date": "2017-10-24",
    "details": "50A(10)/50B(7)/50C(2)/59A(18)/59B(14)/75A(7)/75B(1)",
    "tel": "1800-3800"
  },
  {
    "row": 414,
    "name": "호반베르디움",
    "location": "전라남도 목포시",
    "count": 66,
    "date": "2017-10-24",
    "details": "84A(55)/84B(11)",
    "tel": "1566-0878"
  },
  {
    "row": 415,
    "name": "대방노블랜드",
    "location": "전북 전주시",
    "count": 69,
    "date": "2017-10-27",
    "details": "A-4블럭(84A 17)/A-4블럭(84B 17)/A-4블럭(84C 35)",
    "tel": "1688-3633"
  },
  {
    "row": 416,
    "name": "한양수자인 양양",
    "location": "강원도 양양군",
    "count": 47,
    "date": "2017-10-27",
    "details": "76타입(9)/78P(1)/78타입(29)/84A(22)/84B(6)",
    "tel": "1522-4194"
  },
  {
    "row": 417,
    "name": "삼한골드뷰",
    "location": "부산광역시 금정구",
    "count": 6,
    "date": "2017-11-01",
    "details": "84A(3)/84B(3)",
    "tel": "051-544-3131"
  },
  {
    "row": 418,
    "name": "속초자이",
    "location": "강원도 속초시",
    "count": 23,
    "date": "2017-11-01",
    "details": "59(2)/74A(4)/74B(3)/82T(1)/84A(8)/84B(4)/84C(1)",
    "tel": "1644-7944"
  },
  {
    "row": 419,
    "name": "동탄역 파라곤",
    "location": "경기도 화성시",
    "count": 28,
    "date": "2017-11-01",
    "details": "78(8)/79(20)",
    "tel": "1588-0080"
  },
  {
    "row": 420,
    "name": "스카이원",
    "location": "부산광역시 해운대",
    "count": 4,
    "date": "2017-11-01",
    "details": "69A(2)/81(2)",
    "tel": "1877-1001"
  },
  {
    "row": 421,
    "name": "신안인스빌",
    "location": "경기도 평택시",
    "count": 5,
    "date": "2017-11-03",
    "details": "84A(3)/84B(2)",
    "tel": "031-656-7090"
  },
  {
    "row": 422,
    "name": "현대 힐스테이트",
    "location": "부산광역시 서구",
    "count": 2,
    "date": "2017-11-07",
    "details": "84A(1)/84B(1)",
    "tel": "051-243-0600"
  },
  {
    "row": 423,
    "name": "시티프라디움",
    "location": "경남 진주시",
    "count": 40,
    "date": "2017-11-07",
    "details": "84A(29)/84B(11)",
    "tel": "055-752-0407"
  },
  {
    "row": 424,
    "name": "골드클래스",
    "location": "광주광역시 남구",
    "count": 41,
    "date": "2017-11-07",
    "details": "84A(18)/84B(8)/84C(15)",
    "tel": "062-227-2278"
  },
  {
    "row": 425,
    "name": "대방디엠시티",
    "location": "경기도 화성시",
    "count": 46,
    "date": "2017-11-07",
    "details": "56A(23)/59B(23)",
    "tel": "1688-1005"
  },
  {
    "row": 426,
    "name": "울산송정 B3블록",
    "location": "울산광역시",
    "count": 1,
    "date": "2017-11-07",
    "details": "84B(1)",
    "tel": "051-460-5456"
  },
  {
    "row": 427,
    "name": "e편한세상 강동 에코포레",
    "location": "서울특별시 강동구",
    "count": 11,
    "date": "2017-11-13",
    "details": "59A(2)/59B(2)/59C(1)/84A(4)/84B(4)",
    "tel": "02-474-9956"
  },
  {
    "row": 428,
    "name": "코아루 웰라움",
    "location": "경기도 시흥시",
    "count": 16,
    "date": "2017-11-13",
    "details": "70(3)/77A(9)/77B(4)",
    "tel": "02-3451-1010"
  },
  {
    "row": 429,
    "name": "강원도 강릉시",
    "location": "신원아침도시",
    "count": 249,
    "date": "2017-11-13",
    "details": "72(16)/84(223)",
    "tel": "02-3451-1261"
  },
  {
    "row": 430,
    "name": "서희스타힐스",
    "location": "경기도 평택시",
    "count": 2,
    "date": "2017-11-13",
    "details": "66(1)/84A(1)",
    "tel": "031-662-1449"
  },
  {
    "row": 431,
    "name": "힐스테이트 클래시안",
    "location": "서울 영등포구",
    "count": 66,
    "date": "2017-11-16",
    "details": "42(5), 59A(19), 59B(12), 84A(22), 84B(8)",
    "tel": "02-832-6696"
  },
  {
    "row": 432,
    "name": "양산 물금 한신더휴",
    "location": "경상남도 양산시",
    "count": 102,
    "date": "2017-11-16",
    "details": "59A(18), 59B(4), 77A(17), 77B(9), 84A(23), 84B(25), 84C(2), 84D(4)",
    "tel": "055-386-0505"
  },
  {
    "row": 433,
    "name": "청주가경 아이파크",
    "location": "충북 청주시",
    "count": 11,
    "date": "2017-11-16",
    "details": "75(1), 84A(8), 84B(2)",
    "tel": "043-239-7502"
  },
  {
    "row": 434,
    "name": "인제 라온프라이빗",
    "location": "강원도 인제군",
    "count": 8,
    "date": "2017-11-21",
    "details": "59(3), 84(5)",
    "tel": "033-463-8897"
  },
  {
    "row": 435,
    "name": "모아미래도 에듀포레",
    "location": "경기도 시흥시",
    "count": 4,
    "date": "2017-11-21",
    "details": "84A(3), 84B(1)",
    "tel": "1899-1366"
  },
  {
    "row": 436,
    "name": "안성아양 B-6블록",
    "location": "경기도 안성시",
    "count": 1,
    "date": "2017-11-21",
    "details": "84A(1)",
    "tel": "031-250-8245"
  },
  {
    "row": 437,
    "name": "울산 호반베르디움",
    "location": "울산광역시 남구",
    "count": 94,
    "date": "2017-11-21",
    "details": "1bl84A(23), 1bl84B(10), 1bl84C(6), 2bl84A(44), 2bl84B(7), 2bl84C(4)",
    "tel": "1566-2822"
  },
  {
    "row": 438,
    "name": "파주운정3 택지개발지구",
    "location": "경기도 파주시",
    "count": 2,
    "date": "2017-11-21",
    "details": "59A1(1), 84A(1)",
    "tel": "031-956-1199"
  },
  {
    "row": 439,
    "name": "안동송현 양우내안애",
    "location": "경상북도 안동시",
    "count": 30,
    "date": "2017-11-23",
    "details": "72(20), 76(4), 84A(4), 84B(2)",
    "tel": "054-856-4700"
  },
  {
    "row": 440,
    "name": "김포한강신도시",
    "location": "경기도 김포시",
    "count": 46,
    "date": "2017-11-23",
    "details": "78A(21), 78B(17), 78C(8)",
    "tel": "1899-7642"
  },
  {
    "row": 441,
    "name": "운남 진아리채",
    "location": "광주광역시 서구",
    "count": 13,
    "date": "2017-11-23",
    "details": "84(13)",
    "tel": "062-385-0902"
  },
  {
    "row": 442,
    "name": "안양 센트럴 헤센",
    "location": "경기도 안양시",
    "count": 55,
    "date": "2017-11-23",
    "details": "59A(36), 59B(13), 59C(6)",
    "tel": "02-3288-0100"
  },
  {
    "row": 443,
    "name": "보령 시티프라디움",
    "location": "보령시 명천지구",
    "count": 59,
    "date": "2017-11-28",
    "details": "84A(49), 84B(10)",
    "tel": "1544-0228"
  },
  {
    "row": 444,
    "name": "세종 리더스포레",
    "location": "세종특별자치시",
    "count": 6,
    "date": "2017-11-28",
    "details": "84(5), 84B(1)",
    "tel": "1899-1366"
  },
  {
    "row": 445,
    "name": "e편한세상 파크센트럴",
    "location": "서울 송파구",
    "count": 3,
    "date": "2017-11-28",
    "details": "59B(1), 84A(1), 84C(1)",
    "tel": "02-3446-1199"
  },
  {
    "row": 446,
    "name": "e편한세상 동래온천",
    "location": "부산 동래구",
    "count": 2,
    "date": "2017-11-28",
    "details": "49(1), 84(1)",
    "tel": "051-746-6550"
  },
  {
    "row": 447,
    "name": "파주운정 A26BL",
    "location": "경기도 파주시",
    "count": 5,
    "date": "2017-11-28",
    "details": "59A(1), 84A(2), 84A1(1), 84B(1)",
    "tel": "031-956-1057"
  },
  {
    "row": 448,
    "name": "동탄2신도시 C-11BL",
    "location": "경기도 화성시",
    "count": 12,
    "date": "2017-11-28",
    "details": "65(6), 84A(3), 84B(3)",
    "tel": "1522-3003"
  },
  {
    "row": 449,
    "name": "캐슬 파밀리에 시티",
    "location": "경기도 김포시",
    "count": 19,
    "date": "2017-11-28",
    "details": "59A(2), 74(2), 80(2), 84A(11), 84B(2)",
    "tel": "1899-2002"
  },
  {
    "row": 450,
    "name": "더 테라스 아리스타",
    "location": "강원도 강릉시",
    "count": 13,
    "date": "2017-11-29",
    "details": "84A(6), 84B(7)",
    "tel": "033-647-7778"
  },
  {
    "row": 451,
    "name": "동원로얄듀크 포레",
    "location": "경기도 화성시",
    "count": 19,
    "date": "2017-11-29",
    "details": "59(19)",
    "tel": "051-630-4188"
  },
  {
    "row": 452,
    "name": "두산위브 더파크",
    "location": "경기도 시흥시",
    "count": 84,
    "date": "2017-12-04",
    "details": "39A(9), 59A(15), 59B(4), 59C(2), 59D(8), 84A(11), 84B(29), 84C(1), 84D(5)",
    "tel": "1600-6110"
  },
  {
    "row": 453,
    "name": "광명에코자이위브",
    "location": "경기도 광명시",
    "count": 14,
    "date": "2017-12-05",
    "details": "32(1), 40(2), 49A(3), 49B(1), 59A(2), 59B(1), 59C(2), 72A(1), 84C(1)",
    "tel": "1670-7677"
  },
  {
    "row": 454,
    "name": "밀양 한신더휴",
    "location": "경상남도 밀양시",
    "count": 17,
    "date": "2017-12-05",
    "details": "67(3), 75(5), 84A(5), 84B(4)",
    "tel": "055-714-7785"
  },
  {
    "row": 455,
    "name": "e편한세상 에코포레",
    "location": "대전광역시 동구",
    "count": 129,
    "date": "2017-12-05",
    "details": "43(3), 59(27), 72(39), 75(32), 84(28)",
    "tel": "1522-0220"
  },
  {
    "row": 456,
    "name": "중흥S클래스 센텀뷰",
    "location": "세종 대평동",
    "count": 4,
    "date": "2017-12-05",
    "details": "84A(2), 84C(1), 84E(1)",
    "tel": "1577-2264"
  },
  {
    "row": 457,
    "name": "한신더휴 리저뷰",
    "location": "세종 대평동",
    "count": 6,
    "date": "2017-12-05",
    "details": "H01<84A(1), 84B(1), 84D(1)> H02<84A(1), 84B(1), 84F(1)",
    "tel": "1811-0080"
  },
  {
    "row": 458,
    "name": "일산자이 2차",
    "location": "경기도 교양시",
    "count": 12,
    "date": "2017-12-05",
    "details": "59(1), 61(1), 66A(1), 66B(1), 76(2), 77A(2), 77B(2), 84(2)",
    "tel": "1644-3663"
  },
  {
    "row": 459,
    "name": "오룡 에듀포레",
    "location": "전라남도 무안군",
    "count": 25,
    "date": "2017-12-05",
    "details": "34bl84A(6),m 34bl84B(2), 34bl84C(3), 34bl84D(2), 35bl84A(6), 35bl84B(2), 35bl84C(3), 35bl84D(1)",
    "tel": "061-282-8900"
  },
  {
    "row": 460,
    "name": "오투그란데",
    "location": "전라북도 익산시`",
    "count": 15,
    "date": "2017-12-11",
    "details": "84(15)",
    "tel": "063-857-4272"
  },
  {
    "row": 461,
    "name": "시흥장현지구",
    "location": "경기도 시흥시",
    "count": 7,
    "date": "2017-12-11",
    "details": "73(1), 84(6)",
    "tel": "02-6177-0234"
  },
  {
    "row": 462,
    "name": "일동미라주",
    "location": "경상남도 진주시",
    "count": 31,
    "date": "2017-12-12",
    "details": "75(9), 84A(13), 84B(9)",
    "tel": "051-632-3456"
  },
  {
    "row": 463,
    "name": "양우내안애",
    "location": "강원도 속초시",
    "count": 27,
    "date": "2017-12-12",
    "details": "84A(6), 84B(12), 84C(6), 84D(3)",
    "tel": "1599-5200"
  },
  {
    "row": 464,
    "name": "봉포 스위트엠",
    "location": "강원도 고성군",
    "count": 5,
    "date": "2017-12-12",
    "details": "80A(4), 80B(1)",
    "tel": "1644-5566"
  },
  {
    "row": 465,
    "name": "힐즈파크 푸르지오",
    "location": "경기도 하남시",
    "count": 4,
    "date": "2017-12-18",
    "details": "52(1), 59A(2), 59B(1)",
    "tel": "1811-1404"
  },
  {
    "row": 466,
    "name": "남양주 별내지구 우미린",
    "location": "경기도 남양주",
    "count": 58,
    "date": "2017-12-20",
    "details": "84A(32), 84B(26)",
    "tel": "031-554-7600"
  },
  {
    "row": 467,
    "name": "한강 금호어울림",
    "location": "경기도 김포시",
    "count": 86,
    "date": "2017-12-20",
    "details": "B-2<77A(10), 77B(2), 77C(4), 84A(15), 84B(9), 84C6)>D-1<59A(4), 59B(2), 59C(2), 77A(13), 77B(4), 77C(5), 77D(2), 84A(4), 84B(2), 84C(2)> ",
    "tel": "031-981-1773"
  },
  {
    "row": 468,
    "name": "센텀 천일 스카이원 ",
    "location": "부산시 해운대구",
    "count": 4,
    "date": "2017-12-28",
    "details": "69A(2), 81(2)",
    "tel": "1877-1001"
  },
  {
    "row": 469,
    "name": "춘천파크자이",
    "location": "강원도 춘천시",
    "count": 84,
    "date": "2017-12-28",
    "details": "64B(5), 69A(13), 74A(18), 74B(2), 84A(29), 84B(6), 84C(11)",
    "tel": "033-902-2036"
  },
  {
    "row": 470,
    "name": "부안 라온 프라이빗",
    "location": "전라북도 부안군",
    "count": 7,
    "date": "2017-12-28",
    "details": "75(1), 84A(3), 84B(2), 84C(1)",
    "tel": "063-581-7775"
  },
  {
    "row": 471,
    "name": "중흥S클래스",
    "location": "충청남도 당진",
    "count": 48,
    "date": "2017-12-29",
    "details": "84(48)",
    "tel": "041-358-4922"
  },
  {
    "row": 472,
    "name": "과천센트럴파크 푸르지오써밋",
    "location": "경기도 과천시(군)",
    "count": 6,
    "date": "2018-01-03",
    "details": "59A(1), 59T(1), 84A(3), 84B(1)",
    "tel": "1877-5001"
  },
  {
    "row": 473,
    "name": "힐스테이트 동탄2차 C-1블록",
    "location": " 경기도 화성시(군)",
    "count": 3,
    "date": "2018-01-05",
    "details": "54A(1), 54B(1), 54C(1)",
    "tel": "1644-2080"
  },
  {
    "row": 474,
    "name": "원주단구 내안애카운티 에듀파크",
    "location": "강원도 원주시(통합)",
    "count": 90,
    "date": "2018-01-09",
    "details": "1단지<84A(42), 84B(7), 84C(7)>, 2단지<84A(20), 84B(5), 84C(7), 84D(2)>",
    "tel": "033-744-4560"
  },
  {
    "row": 475,
    "name": "서대전역 코아루 써밋",
    "location": "대전광역시(통합)",
    "count": 13,
    "date": "2018-01-09",
    "details": "59A(2), 59B(2), 63A(2), 63B(5), 63C(2)",
    "tel": "042-618-9020"
  },
  {
    "row": 476,
    "name": "e편한세상 동해",
    "location": "강원도 동해시(통합)",
    "count": 63,
    "date": "2018-01-15",
    "details": "78A(12), 78B(16), 78C(11), 84A(24) ",
    "tel": "033-535-0644"
  },
  {
    "row": 477,
    "name": "첨단 진아리채",
    "location": "광주광역시(통합)",
    "count": 23,
    "date": "2018-01-15",
    "details": "84(23)",
    "tel": "062-363-0808"
  },
  {
    "row": 478,
    "name": "e편한세상 둔산 1-2단지",
    "location": "대전광역시(군)",
    "count": 2,
    "date": "2018-01-16",
    "details": "1단지 72A(1), 2단지 72A(1)",
    "tel": "042-522-5522"
  },
  {
    "row": 479,
    "name": "세종 트리쉐이드 리젠시",
    "location": "세종시2-4생활권(군)",
    "count": 2,
    "date": "2018-01-16",
    "details": "84D(2)",
    "tel": "1899-0633"
  },
  {
    "row": 480,
    "name": "순천신대지구 B-1BL 중흥S클래스",
    "location": "전라남도순천시(통합)",
    "count": 25,
    "date": "2018-01-22",
    "details": "84A(18), 84B(7)",
    "tel": "061-727-5995"
  },
  {
    "row": 481,
    "name": "부천 e편한세상 온수역",
    "location": "경기도 부천시(통합)",
    "count": 21,
    "date": "2018-01-22",
    "details": "84A(12), 84B(9)",
    "tel": "032-342-0066"
  },
  {
    "row": 482,
    "name": "e편한세상 금오파크",
    "location": "경북 구미시(통합)",
    "count": 108,
    "date": "2018-01-22",
    "details": "67(18), 84A(65), 84B(16), 84C(9)",
    "tel": "054-462-9988"
  },
  {
    "row": 483,
    "name": "원주기업도시 이지더원2차 2-1BL",
    "location": "강원도 원주시(통합)",
    "count": 76,
    "date": "2018-01-22",
    "details": "59A(17), 59B(17), 84(42)",
    "tel": "1855-3728"
  },
  {
    "row": 484,
    "name": "송정동1-2단지 힐스테이트 송정",
    "location": "경북 구미시(통합)",
    "count": 43,
    "date": "2018-01-22",
    "details": "1단지<59(15), 74A(3), 74B(5), 84A(5), 84B(7)>, 2단지<59(1), 74B(1), 84A(2), 84B(4)>",
    "tel": "1899-0087"
  },
  {
    "row": 485,
    "name": "성복역 롯데캐슬 파크나인",
    "location": "경기도 용인시(통합)",
    "count": 33,
    "date": "2018-01-29",
    "details": "84A(15), 84B(18)",
    "tel": "1644-9322"
  },
  {
    "row": 486,
    "name": "미륵산 더테라스 오투그라데",
    "location": "전북 익산시(통합)",
    "count": 12,
    "date": "2018-01-30",
    "details": "84A(7), 82B(1), 82C(4)",
    "tel": "063-857-4272"
  },
  {
    "row": 487,
    "name": "인천 계양산 파크 트루엘",
    "location": "경기도 인천시(통합)",
    "count": 6,
    "date": "2018-01-31",
    "details": "59A(2), 59B(1), 59E(1), 59F(1), 59G(1)",
    "tel": "032-547-1688"
  },
  {
    "row": 488,
    "name": "각화동 센트럴파크 서희스타힐스",
    "location": "전남 광주광역시(군)",
    "count": 2,
    "date": "2018-01-31",
    "details": "84(2)",
    "tel": "062-266-9096"
  },
  {
    "row": 489,
    "name": "평화2차 골드클래스 모악산",
    "location": "전라북도 전주시",
    "count": 34,
    "date": "2018-02-13",
    "details": "84A(19), 84B(9), 84E(6)",
    "tel": "063-717-7500"
  },
  {
    "row": 490,
    "name": "수원 인계동 동문굿모닝힐",
    "location": "경기도 수원시(군)",
    "count": 3,
    "date": "2018-02-13",
    "details": "63(1), 71(1), 79A(1)",
    "tel": "031-646-2700"
  },
  {
    "row": 491,
    "name": "성복역 롯데캐슬 파크나인",
    "location": "경기도 용인시(통합)",
    "count": 33,
    "date": "2018-02-13",
    "details": "84A(15), 84B(18)",
    "tel": "1644-9322"
  },
  {
    "row": 492,
    "name": "e편한세상 보라매 2차",
    "location": "서울 영등포구(군)",
    "count": 9,
    "date": "2018-02-21",
    "details": "59A(1), 59B(1), 59C(1), 84A(2), 84B(1), 84C(3)",
    "tel": "1566-3551"
  },
  {
    "row": 493,
    "name": "계양 효성해링턴 플레이스",
    "location": "인천 계양구(통합)",
    "count": 106,
    "date": "2018-02-27",
    "details": "59A(23), 59B(8), 72A(11), 72B(18), 84A(39), 84B(7)",
    "tel": "032-541-3030"
  },
  {
    "row": 494,
    "name": "대구국가산업단지 줌파크",
    "location": "대구 달성군(군)",
    "count": 7,
    "date": "2018-02-27",
    "details": "60.9157A(3), 84.3504B(1), 84.4828A(3)",
    "tel": "1800-7300"
  },
  {
    "row": 495,
    "name": "동일스위트 더파크",
    "location": "경기도 김포시(통합)",
    "count": 169,
    "date": "2018-02-28",
    "details": "84.7155B(13), 84.8894C(13), 84.9584A(74), 84.7155B(16), 84.8894C(16), 84.9584A(37)",
    "tel": "02-381-0022"
  },
  {
    "row": 496,
    "name": "평택소사벌 효성해링턴코트",
    "location": "경기도 평택시(통합)",
    "count": 38,
    "date": "2018-02-28",
    "details": "84.7700C(12), 84.7700D(12), 84.9900A(2), 84.9900B(12)",
    "tel": "032-652-4470"
  },
  {
    "row": 497,
    "name": "춘천 센트럴 타워 푸르지오",
    "location": "강원도 춘천시(통합)",
    "count": 108,
    "date": "2018-03-02",
    "details": "84.9032G(18), 84.9238F(18), 84.9517A(27), 84.9751E(9), 84.9761B(9), 84.9761C(9), 84.9894D(18)",
    "tel": "1811-1606"
  },
  {
    "row": 498,
    "name": "창원 롯데캐슬 프리미어",
    "location": "경남 창원시(군)",
    "count": 8,
    "date": "2018-03-02",
    "details": "84A(6), 84B(2)",
    "tel": "055-242-0050"
  },
  {
    "row": 499,
    "name": "과천 위버필드",
    "location": "경기도 과천시(군)",
    "count": 3,
    "date": "2018-03-05",
    "details": "59A(1), 59B(1), 84A(1)",
    "tel": "1600-0076"
  },
  {
    "row": 500,
    "name": "디에이치 자이 개포",
    "location": "서울 강남(군)",
    "count": 20,
    "date": "2018-03-05",
    "details": "63T(3), 76P(3), 76T(1), 84P(8), 84T(5)",
    "tel": "02-575-1690"
  },
  {
    "row": 501,
    "name": "청주 더샵 퍼스트파크",
    "location": "충북 청주시(군)",
    "count": 21,
    "date": "2018-03-06",
    "details": "63A(5), 76A(4), 76B(3), 84C(2), 84A(5), 84B(2)",
    "tel": "1544-8860"
  },
  {
    "row": 502,
    "name": "에코르 10년 공공임대주택",
    "location": "전북 장수, 임실(군)",
    "count": 2,
    "date": "2018-03-07",
    "details": "임실59A(1), 장수59A(1)",
    "tel": "063-280-7491"
  },
  {
    "row": 503,
    "name": "중흥S클래스",
    "location": "경기도 고양시(통합)",
    "count": 72,
    "date": "2018-03-08",
    "details": "72(16, 84A(48), 84B(8)",
    "tel": "031-968-9570"
  },
  {
    "row": 504,
    "name": "논현 아이파크",
    "location": "서울 강남구(통합)",
    "count": 10,
    "date": "2018-03-08",
    "details": "47(5), 59(5)",
    "tel": "1600-4785"
  },
  {
    "row": 505,
    "name": "e편한세상 창원 파크센트럴",
    "location": "경남 창원(군)",
    "count": 13,
    "date": "2018-03-08",
    "details": "49(1), 59A(1), 59B(1), 59C(1), 59D(1), 72A(1), 72B(1), 72C(2), 84A(3), 84B(3)",
    "tel": "055-293-0033"
  },
  {
    "row": 506,
    "name": "방배서리풀 서해그랑블",
    "location": "서울시 서초구(군)",
    "count": 1,
    "date": "2018-03-13",
    "details": "84A(1)",
    "tel": "1600-0992"
  },
  {
    "row": 507,
    "name": "부평 코오롱하늘채",
    "location": "인천 부평구(통합)",
    "count": 56,
    "date": "2018-03-14",
    "details": "34(11), 59A(10), 59B(6), 71(2), 72A(17), 72B(2), 84(7)",
    "tel": "1899-0313"
  },
  {
    "row": 508,
    "name": "당산 센트럴 아이파크",
    "location": "서울 영등포구(통합)",
    "count": 15,
    "date": "2018-03-14",
    "details": "46(1), 59A(1), 59B(3), 71A(3), 71B(1), 71C(3), 84A(1), 84B(1), 84D(1)",
    "tel": "02-2632-5400"
  },
  {
    "row": 509,
    "name": "복현 자이",
    "location": "대구 북구(군)",
    "count": 7,
    "date": "2018-03-14",
    "details": "74(3), 84A(1), 84B(2), 84C(1)",
    "tel": "1661-5523"
  },
  {
    "row": 510,
    "name": "평택 더샵 센트럴파크",
    "location": "경기도 평택(통합)",
    "count": 29,
    "date": "2018-03-14",
    "details": "59A(4), 59B(4), 74A(6), 74B(5), 83(7), 84(3)",
    "tel": "1661-2270"
  },
  {
    "row": 511,
    "name": "부평역 화성파크드림",
    "location": "인천 부평구(통합)",
    "count": 54,
    "date": "2018-03-17",
    "details": "59A(15), 59B(3), 75A(6), 75B(10), 84A(14), 84B(6)",
    "tel": "032-465-8922"
  },
  {
    "row": 512,
    "name": "남양주 두산위브 트레지움",
    "location": "경기도 남양주(통합)",
    "count": 50,
    "date": "2018-03-17",
    "details": "59A(14), 74B(9), 74A(8), 84(19)",
    "tel": "031-557-3890"
  },
  {
    "row": 513,
    "name": "시흥은계 S-3블록 10년 공공임대주택",
    "location": "경기도 시흥시(군)",
    "count": 2,
    "date": "2018-03-17",
    "details": "51(1), 84(1)",
    "tel": "02-2026-9481"
  },
  {
    "row": 514,
    "name": "e편한세상 선부광장",
    "location": "경기도 안산시(군)",
    "count": 3,
    "date": "2018-03-20",
    "details": "59B(1), 74(2)",
    "tel": "031-439-2222"
  },
  {
    "row": 515,
    "name": "시흥장현 B-3BL 금강펜테리움",
    "location": "경기도 시흥시(군)",
    "count": 6,
    "date": "2018-03-20",
    "details": "79.9636(1), 79.9840(1), 84.9886(3), 84.9889(1)",
    "tel": "1644-7794"
  },
  {
    "row": 516,
    "name": "시흥 장현지구 B-5블록 제일풍경채 에듀",
    "location": "경기도 시흥시(군)",
    "count": 8,
    "date": "2018-03-20",
    "details": "75.1125(2), 84.9260(6)",
    "tel": "1577-2149"
  },
  {
    "row": 517,
    "name": "시흥 장현지구 B-4블록 제일풍경채 센텀",
    "location": "경기도 시흥시(군)",
    "count": 12,
    "date": "2018-03-20",
    "details": "75.8172(1), 84.9260(11)",
    "tel": "1577-2149"
  },
  {
    "row": 518,
    "name": "김포한강 Ac-01a블록 10년공공임대주택",
    "location": "경기도 김포(군)",
    "count": 2,
    "date": "2018-03-20",
    "details": "51A(1), 59A(1)",
    "tel": "031-999-5719"
  },
  {
    "row": 519,
    "name": "동탄(2) A84블록 공공분양주택",
    "location": "경기도 화성시(군)",
    "count": 2,
    "date": "2018-03-20",
    "details": "72A(1), 84B(1)",
    "tel": "031-8077-7990"
  },
  {
    "row": 520,
    "name": "마포프레스티지자이",
    "location": "서울시 마포구(군)",
    "count": 7,
    "date": "2018-03-20",
    "details": "59A(1), 59C(1), 59F(2), 84B(1), 84C(1), 84E(1)",
    "tel": "02-2135-1694"
  },
  {
    "row": 521,
    "name": "송산신도시 모아미래도 에듀포레",
    "location": "경기도 화성시(통합)",
    "count": 49,
    "date": "2018-03-20",
    "details": "84A(31), 84B(7), 84C(11)",
    "tel": "1644-7447"
  },
  {
    "row": 522,
    "name": "힐스테이트 리버시티",
    "location": "경기도 김포시(군)",
    "count": 30,
    "date": "2018-03-22",
    "details": "1단지(14), 2단지(16)",
    "tel": "1544-1522"
  },
  {
    "row": 523,
    "name": "동탄역 예미지 3차",
    "location": "경기도 화성시(군)",
    "count": 3,
    "date": "2018-03-22",
    "details": "84A(1), 84B(1), 84C(1)",
    "tel": "1899-7642"
  },
  {
    "row": 524,
    "name": "사하역 비스타동원",
    "location": "부산 사하구(군)",
    "count": 3,
    "date": "2018-03-26",
    "details": "74D(1), 84B(1), 84C(1)",
    "tel": "1566-9300"
  },
  {
    "row": 525,
    "name": "양주옥정 대방노블랜드",
    "location": "경기도 양주시(통합)",
    "count": 109,
    "date": "2018-03-26",
    "details": "73A(5), 73B(1), 73C(8), 73D(8), 84A(14), 84B(24), 84C(20), 84D(20)",
    "tel": "1688-6800"
  },
  {
    "row": 526,
    "name": "e편한세상 양주신도시 4차",
    "location": "경기도 양주시(군)",
    "count": 19,
    "date": "2018-03-28",
    "details": "66(2), 67(1), 74A(4), 74B(1), 84(11)",
    "tel": "031-868-9500"
  },
  {
    "row": 527,
    "name": "평택 더샵 센트럴파크",
    "location": "경기도 평택시(통합)",
    "count": 43,
    "date": "2018-03-28",
    "details": "59A(10), 59B(2), 74A(12), 74B(4), 74C(3), 83(7), 84(5)",
    "tel": "1661-2270"
  },
  {
    "row": 528,
    "name": "평택 소사벌 아너하임",
    "location": "경기도 평택시(통합)",
    "count": 15,
    "date": "2018-03-28",
    "details": "84A1(8), 84A2(7)",
    "tel": "031-656-0186"
  },
  {
    "row": 529,
    "name": "가평 블루핀",
    "location": "경기도 가평군(통합)",
    "count": 11,
    "date": "2018-03-30",
    "details": "63(7), 84A(3), 84B(1)",
    "tel": "1566-9099"
  },
  {
    "row": 530,
    "name": "익산 부송 꿈에그린",
    "location": "전북 익산(통합)",
    "count": 60,
    "date": "2018-03-30",
    "details": "59A(7), 59B(6), 59C(6), 74(14), 84A(14), 84B(13)",
    "tel": "1566-5111"
  },
  {
    "row": 531,
    "name": "화성봉담2 S-1블록 10년 공공임대",
    "location": "경기도 화성시(군)",
    "count": 2,
    "date": "2018-03-30",
    "details": "51B(1), 59C(1)",
    "tel": "031-250-8295"
  },
  {
    "row": 532,
    "name": "HC2블록 제일풍경채 위너스카이",
    "location": "세종시2-4생활권(군)",
    "count": 7,
    "date": "2018-03-30",
    "details": "84A(4), 84B(2), 84G(1)",
    "tel": "1588-1216"
  },
  {
    "row": 533,
    "name": "세종마스터힐스",
    "location": "세종시 6-4생활권",
    "count": 34,
    "date": "2018-04-02",
    "details": "L1<59A(14), 84A(6), 84C(2), 84D(2)>, M1<84A(2), 84C(2), 84D(4), 84E(2)",
    "tel": "044-216-6210"
  },
  {
    "row": 534,
    "name": "양산 양우 내안애 파크뷰",
    "location": "경상남도 양산시(군)",
    "count": 26,
    "date": "2018-04-09",
    "details": "84A(15), 84B(11)",
    "tel": ""
  },
  {
    "row": 535,
    "name": "바구멀1구역 서신아이파크 e편한세상",
    "location": "전북 전주시(통합)",
    "count": 81,
    "date": "2018-04-12",
    "details": "34(5), 59A(3), 59B(10), 59C(6), 59D(4), 84A(18), 84B(30), 84C(5) ",
    "tel": "1588-8027"
  },
  {
    "row": 536,
    "name": "e편한세상 인창 어반포레",
    "location": "경기도 구리시(통합)",
    "count": 32,
    "date": "2018-04-12",
    "details": "39(7), 59(7), 59(6), 84.9960(10), 84.9980(2)",
    "tel": "031-566-3838"
  },
  {
    "row": 537,
    "name": "e편한세상 문래아파트",
    "location": "서울 영등포구(군)",
    "count": 6,
    "date": "2018-04-17",
    "details": "59A(3), 59B(1), 59C(2)",
    "tel": "02-2061-2070"
  },
  {
    "row": 538,
    "name": "청주 동남지구 B7블럭 우미린 아파트",
    "location": "충북 청주시(통합)",
    "count": 99,
    "date": "2018-04-17",
    "details": "69.8386A(27), 67.7134B(11), 78.5311A(6), 78.7880B(2), 84.9687A(53)",
    "tel": "043-287-0100"
  },
  {
    "row": 539,
    "name": "대구 연경 금성백조 예미지",
    "location": "대구 북구(군)",
    "count": 9,
    "date": "2018-04-18",
    "details": "78(2), 84(7)",
    "tel": "1899-3935"
  },
  {
    "row": 540,
    "name": "e편한세상 대전법동 아파트",
    "location": "대전 대덕구(통합)",
    "count": 40,
    "date": "2018-04-19",
    "details": "74A(7), 74B(12), 84A(8), 84B(10), 84C(3)",
    "tel": "042-822-1355"
  },
  {
    "row": 541,
    "name": "하남 포웰시티",
    "location": "경기도 하남시(군)",
    "count": 22,
    "date": "2018-04-19",
    "details": "73(총 11세대 / 하남 거주자 3세대, 기타지역 8세대),84(총11세대 / 하남 거주자 3세대, 기타지역 8세대)",
    "tel": "1577-5811"
  },
  {
    "row": 542,
    "name": "고덕자이",
    "location": "서울시 강동구(군)",
    "count": 17,
    "date": "2018-04-19",
    "details": "52(1), 59A(4), 59B(4), 74A(1), 74B(1), 84B(6)",
    "tel": "1661-4524"
  },
  {
    "row": 543,
    "name": "해운대 센트럴 푸르지오",
    "location": "부산 해운대구(통합)",
    "count": 54,
    "date": "2018-04-20",
    "details": "84㎡A(18), 84㎡B(9), 84㎡C(27)",
    "tel": "051-742-9990"
  },
  {
    "row": 544,
    "name": "성복역 롯데캐슬 파크나인 2차",
    "location": "경기도 용인(군)",
    "count": 7,
    "date": "2018-04-20",
    "details": "84A(3), 84B(4)",
    "tel": "1644-9322"
  },
  {
    "row": 545,
    "name": "평화3차 골드클래스",
    "location": "전북 전주(통합)",
    "count": 22,
    "date": "2018-04-20",
    "details": "84A(9), 84C(9), 84D(4)",
    "tel": "063-717-7500"
  },
  {
    "row": 546,
    "name": "앞산봉덕 영무예다음 공동주택",
    "location": "대구 남구(군)",
    "count": 5,
    "date": "2018-04-20",
    "details": "59(1), 84A(3), 84B(1)",
    "tel": "053-472-0700"
  },
  {
    "row": 547,
    "name": "대구국가산단 반도유보라 아이비파크 3.",
    "location": "대구 달성군(통합)",
    "count": 77,
    "date": "2018-04-24",
    "details": "74.9638(42), 74.2629(15), 78.9728(20)",
    "tel": "1800-1122"
  },
  {
    "row": 548,
    "name": "신동백 두산위브더제니스",
    "location": "경기도 용인시(군)",
    "count": 116,
    "date": "2018-04-25",
    "details": "69(24세대), 78(46세대), 84(46세대)",
    "tel": "1600-0977"
  },
  {
    "row": 549,
    "name": "화서역 파크 푸르지오",
    "location": "경기도 수원시(군)",
    "count": 21,
    "date": "2018-04-25",
    "details": "59A(3), 59B(1), 74A(2), 74B(1), 84A(7), 84B(5), 84C(2)",
    "tel": "1877-8482"
  },
  {
    "row": 550,
    "name": "단아루 단양군립 20년 공공임대주택",
    "location": "충북 단양군(군)",
    "count": 2,
    "date": "2018-04-30",
    "details": "39㎡(1세대), 54㎡(1세대)",
    "tel": "043-210-9142"
  },
  {
    "row": 551,
    "name": "인천 도화지구 금강펜테리움 센트럴파크",
    "location": "인천 남구(통합)",
    "count": 47,
    "date": "2018-04-30",
    "details": "59A(32), 74A(9), 84A(6)",
    "tel": "1899-3851"
  },
  {
    "row": 552,
    "name": "의왕 더샵캐슬",
    "location": "경기도 의왕시(군)",
    "count": 5,
    "date": "2018-05-02",
    "details": "59A(1), 84A(2), 84B(2)",
    "tel": "031-429-7990"
  },
  {
    "row": 553,
    "name": "달서 센트럴 더샵",
    "location": "대구 달서구(군)",
    "count": 6,
    "date": "2018-05-02",
    "details": "59(3), 72(3)",
    "tel": "053-555-0789"
  },
  {
    "row": 554,
    "name": "강릉 유천 공공주택지구 S1블록",
    "location": "강원도 강릉(군)",
    "count": 6,
    "date": "2018-05-09",
    "details": "84A 2세대, 84B 4세대",
    "tel": "1644-7144"
  },
  {
    "row": 555,
    "name": "신길파크자이",
    "location": "서울시 영등포구(군)",
    "count": 4,
    "date": "2018-05-09",
    "details": "84B 4세대",
    "tel": "1644-3278"
  },
  {
    "row": 556,
    "name": "예천2지구 중흥 S-클래스",
    "location": "충청남도 서산시(군)",
    "count": 4,
    "date": "2018-05-09",
    "details": "84B 4세대",
    "tel": "041-669-8500"
  },
  {
    "row": 557,
    "name": "힐스테이트 범어",
    "location": "대구시 수성구(군)",
    "count": 3,
    "date": "2018-05-09",
    "details": "84 3세대",
    "tel": "053-741-0074"
  },
  {
    "row": 558,
    "name": "화명 센트럴 푸르지오",
    "location": "부산시 북구(군)",
    "count": 5,
    "date": "2018-05-09",
    "details": "59B 1세대, 84A 1세대, 84B 2세대, 84C 1세대",
    "tel": "1877-7022"
  },
  {
    "row": 559,
    "name": "안양 센트럴 헤센 2차",
    "location": "경기도 안양(군)",
    "count": 3,
    "date": "2018-05-09",
    "details": "62type 1세대, 66type 2세대",
    "tel": "031-427-3450"
  },
  {
    "row": 560,
    "name": "평촌 어바인 퍼스트",
    "location": "경기도 안양시(군)",
    "count": 14,
    "date": "2018-05-14",
    "details": "39(3), 59A(4), 59B(2), 84A(4), 84B(1)",
    "tel": "1661-6075"
  },
  {
    "row": 561,
    "name": "한국아델리움 위너스",
    "location": "전남 무안군(군)",
    "count": 3,
    "date": "2018-05-14",
    "details": "84B(1), 84C(2)",
    "tel": "062-670-0272"
  },
  {
    "row": 562,
    "name": "가야누리애 범천 더 센트리즈",
    "location": "부산 진구(군)",
    "count": 5,
    "date": "2018-05-14",
    "details": "60A(1), 50C(4)",
    "tel": "055-333-4786"
  },
  {
    "row": 563,
    "name": "오산대역 더샵 센트럴시티",
    "location": "경기도 오산시(군)",
    "count": 13,
    "date": "2018-05-14",
    "details": "67㎡(2), 77㎡(4), 84A㎡(2), 84㎡B(5)",
    "tel": "031-375-0033"
  },
  {
    "row": 564,
    "name": "연경 A1 10년공공임대 아파트",
    "location": "대구 북구(군)",
    "count": 2,
    "date": "2018-05-14",
    "details": "59A(2세대)",
    "tel": "053-637-6004"
  },
  {
    "row": 565,
    "name": "대구안심 시티프라디움",
    "location": "대구광역시 동구(군)",
    "count": 9,
    "date": "2018-05-14",
    "details": "84.98A(9)",
    "tel": "1544-1152"
  },
  {
    "row": 566,
    "name": "익산 마동 코아루 디펠리체",
    "location": "전북 익산(군)",
    "count": 21,
    "date": "2018-05-16",
    "details": "75A㎡(15), 75B㎡(6)",
    "tel": "1899-6068"
  },
  {
    "row": 567,
    "name": "안양시엘포레자이",
    "location": "경기도 안양(군)",
    "count": 18,
    "date": "2018-05-16",
    "details": "39(1), 45A(1), 45B(1), 49B(1), 59A(2), 59B(1), 59C(1),  73A(2), 73B(2), 73C(1), 84A(1), 84B(1), 84C(3)",
    "tel": "1544-5532"
  },
  {
    "row": 568,
    "name": "홍제역 효성해링턴 플레이스",
    "location": "서울 서대문구(군)",
    "count": 8,
    "date": "2018-05-16",
    "details": "59A(1), 84A(2), 84B(4), 84C(1)",
    "tel": "02-3210-1112"
  },
  {
    "row": 569,
    "name": "시흥은계 S-4블록(공공분양)",
    "location": "경기도 시흥시(군)",
    "count": 2,
    "date": "2018-05-17",
    "details": "74(1), 84(1)",
    "tel": "02-2026-9476"
  },
  {
    "row": 570,
    "name": "힐스테이트 신촌",
    "location": "서울 서대문구(군)",
    "count": 9,
    "date": "2018-05-23",
    "details": "84A(2), 84B(1), 84C(2), 84D(2), 84E(2)",
    "tel": "02-2058-1088"
  },
  {
    "row": 571,
    "name": "힐스테이트 금정역",
    "location": "경기도 군포시(군)",
    "count": 8,
    "date": "2018-05-23",
    "details": "72(2), 73(2), 84A(1), 84B(3)",
    "tel": "1644-0048"
  },
  {
    "row": 572,
    "name": "래미안 목동아델리체",
    "location": "서울 양천구(군)",
    "count": 18,
    "date": "2018-05-24",
    "details": "59A(4), 59C(1), 84A(4), 84B(2), 84D(3), 84E(1), 84F(3)",
    "tel": "02-2062-4321"
  },
  {
    "row": 573,
    "name": "의정부 고산 대방노블랜드",
    "location": "경기도 의정부시(군)",
    "count": 17,
    "date": "2018-05-24",
    "details": "74A(2), 73B(3), 74C(4), 84A(1), 84B(3), 84C(4)",
    "tel": "1688-7733"
  },
  {
    "row": 574,
    "name": "양산 평산 코아루 2차",
    "location": "경상남도 양산시(군)",
    "count": 7,
    "date": "2018-05-24",
    "details": "70(1세대), 84A(4세대), 84B(2세대)",
    "tel": "055-363-3433"
  },
  {
    "row": 575,
    "name": "캐슬&파밀리에 City 2차",
    "location": "경기도 김포시(군)",
    "count": 20,
    "date": "2018-05-24",
    "details": "74㎡(2), 80㎡(4), 84㎡A(9), 84㎡B(3), 84㎡C(2)",
    "tel": "1899-2002"
  },
  {
    "row": 576,
    "name": "수성범어 에일린의 뜰",
    "location": "대구 수성구(군)",
    "count": 6,
    "date": "2018-05-24",
    "details": "70(2), 72(1), 84A(1), 84B(2)",
    "tel": "053-749-3500"
  },
  {
    "row": 577,
    "name": "갑천3블록 트리풀시티",
    "location": "대전 서구(군)",
    "count": 14,
    "date": "2018-05-29",
    "details": "84A(5), 84B(1), 84C(8)",
    "tel": "042-530-9152"
  },
  {
    "row": 578,
    "name": "의정부고산 공공임대주택리츠",
    "location": "경기도 의정부시(군)",
    "count": 2,
    "date": "2018-05-29",
    "details": "51(1세대), 59B(1세대)",
    "tel": "02-2017-4379"
  },
  {
    "row": 579,
    "name": "영암 현대삼호 2차",
    "location": "전남 영암군(군)",
    "count": 14,
    "date": "2018-05-31",
    "details": "50.9300(8세대), 59.7500(6세대)",
    "tel": "061-460-4849"
  },
  {
    "row": 580,
    "name": "동작 협성휴포레 시그니처",
    "location": "서울 동작구(통합)",
    "count": 29,
    "date": "2018-05-31",
    "details": "84A(12세대), 84B(14세대), 84C(3세대)",
    "tel": "02-841-0088"
  },
  {
    "row": 581,
    "name": "사하구 부평지구 중흥 S-클래스",
    "location": "부산 사하구(군)",
    "count": 16,
    "date": "2018-05-31",
    "details": "59A(7세대), 59B(1세대), 59C(1세대), 84A(4세대), 84B(세대)",
    "tel": "051-292-6600"
  },
  {
    "row": 582,
    "name": "동래 3차 SK VIEW",
    "location": "부산 동래구(군)",
    "count": 1,
    "date": "2018-06-05",
    "details": "84C(1세대)",
    "tel": "051-761-0777"
  },
  {
    "row": 583,
    "name": "대구연경 아이파크",
    "location": "대구 동구(군)",
    "count": 9,
    "date": "2018-06-05",
    "details": "84A(7세대), 84B(2세대)",
    "tel": "053-981-3456"
  },
  {
    "row": 584,
    "name": "e편한세상 영천",
    "location": "경남 영천(군)",
    "count": 30,
    "date": "2018-06-05",
    "details": "1BL :총15세대/ 74A(2세대), 74B(1세대), 84A(9세대), 84B(2세대), 84C(1세대) / 2BL :총15세대/ 74A(2세대), 74B(1세대), 84A(9세대), 84B(3세대)",
    "tel": "1670-7667"
  },
  {
    "row": 585,
    "name": "구포3구역 신구포 반도유보라",
    "location": "부산 북구(군)",
    "count": 4,
    "date": "2018-06-07",
    "details": "59A(1세대), 74(1세대), 84A(1세대), 84B(1세대)",
    "tel": "1800-0355"
  },
  {
    "row": 586,
    "name": "당진 수청 한라비발디 캠퍼스",
    "location": "충남 당진시(군)",
    "count": 17,
    "date": "2018-06-07",
    "details": "59A(6세대), 59B(2세대), 74(4세대), 84A(4세대), 84B(1세대)",
    "tel": "1899-8830"
  },
  {
    "row": 587,
    "name": "분당 더샵 파크리버",
    "location": "경기도 성남시(군)",
    "count": 3,
    "date": "2018-06-07",
    "details": "59A(1세대), 84B(1세대), 84E(1세대)",
    "tel": "031-539-0600"
  },
  {
    "row": 588,
    "name": "사상역 경보센트리안 아파트",
    "location": "부산 사상구(군)",
    "count": 5,
    "date": "2018-06-22",
    "details": "66(1세대), 64(1세대), 63(1세대), 46(1세대), 47 (1세대)",
    "tel": "051-325-2222"
  },
  {
    "row": 589,
    "name": "정읍 상동 제일오투그란데",
    "location": "전북 정읍시(군)",
    "count": 1,
    "date": "2018-06-22",
    "details": "84(1세대)",
    "tel": "1522-3382"
  },
  {
    "row": 590,
    "name": "전주 인후더샵",
    "location": "전북 전주시(통합)",
    "count": 95,
    "date": "2018-06-22",
    "details": "59A(21세대), 76A(55세대), 76B(19세대)",
    "tel": "063-245-9300"
  },
  {
    "row": 591,
    "name": "여주 아이파크",
    "location": "경기도 여주(군)",
    "count": 11,
    "date": "2018-06-22",
    "details": "84A(8세대), 84B(3세대)",
    "tel": "031-882-8577"
  },
  {
    "row": 592,
    "name": "힐스테이트 지제역 1BL",
    "location": "경기도 평택시(군)",
    "count": 2,
    "date": "2018-06-22",
    "details": "84A(1세대), 84B(1세대)",
    "tel": "1599-7312"
  },
  {
    "row": 593,
    "name": "앞산 비스타동원",
    "location": "대구광역시 남구(군)",
    "count": 5,
    "date": "2018-06-22",
    "details": "59(1세대), 84A(3세대), 84C(1세대)",
    "tel": "1899-1139"
  },
  {
    "row": 594,
    "name": "군산신역세권 B3블록 10년 공공임대리츠",
    "location": "전북 군산시(군)",
    "count": 2,
    "date": "2018-06-22",
    "details": "84A(2세대)",
    "tel": "063-461-0992"
  },
  {
    "row": 595,
    "name": "동탄(2) 공공임대주택리츠",
    "location": "경기도 화성시(군)",
    "count": 5,
    "date": "2018-06-22",
    "details": "A63블록(51A-1세대, 59A-2세대) / A81블록(59A-1세대, 74A-1세대)",
    "tel": "031-8077-7990"
  },
  {
    "row": 596,
    "name": "수성알파시티청아람",
    "location": "대구 수성구(군)",
    "count": 6,
    "date": "2018-06-29",
    "details": "59A(3세대), 59B(1세대), 84A(2세대)",
    "tel": "053-350-0326"
  },
  {
    "row": 597,
    "name": "철산 센트럴 푸르지오",
    "location": "경기도 광명시(군)",
    "count": 3,
    "date": "2018-07-02",
    "details": "59A(1세대), 59B(1세대), 84B(1세대)",
    "tel": "031-441-0323"
  },
  {
    "row": 598,
    "name": "동탄역 유림 노르웨이숲",
    "location": "경기도 화성시(군)",
    "count": 4,
    "date": "2018-07-02",
    "details": "71(1세대), 84A(2세대), 84B(1세대)",
    "tel": "1600-0668"
  },
  {
    "row": 599,
    "name": "광주 백운 코아루 아팰리스힐",
    "location": "광주광역시 남구(군)",
    "count": 2,
    "date": "2018-07-02",
    "details": "71A(2세대)",
    "tel": "062-362-8889"
  },
  {
    "row": 600,
    "name": "장위뉴타운 꿈의숲 아이파크",
    "location": "서울 성북구(군)",
    "count": 21,
    "date": "2018-07-02",
    "details": "59A( 4세대), 59B( 2세대), 76( 1세대), 84A( 8세대), 84B( 6세대)",
    "tel": "02-985-1711"
  },
  {
    "row": 601,
    "name": "힐스테이트 중동",
    "location": "경기도 부천시(군)",
    "count": 16,
    "date": "2018-07-10",
    "details": "84A( 4세대), 84B( 4세대), 84C( 4세대), 84D( 4세대)",
    "tel": "032-324-4999"
  },
  {
    "row": 602,
    "name": "힐스테이트 속초",
    "location": "강원도 속초시(군)",
    "count": 4,
    "date": "2018-07-10",
    "details": "78A( 1세대), 84A( 1세대), 84B( 1세대), 84C( 1세대)",
    "tel": "033-631-1136"
  },
  {
    "row": 603,
    "name": "남산 롯데캐슬 센트럴스카이",
    "location": "대구 남산동(군)",
    "count": 9,
    "date": "2018-07-12",
    "details": "59A( 1세대), 84A( 5세대), 84B( 3세대)",
    "tel": "1577-7236"
  },
  {
    "row": 604,
    "name": "가경자이",
    "location": "충북 청주시(군)",
    "count": 5,
    "date": "2018-07-12",
    "details": "75( 3세대), 84A( 1세대), 84B( 1세대)",
    "tel": "1661-0585"
  },
  {
    "row": 605,
    "name": "고성 천진 한신더휴 오션프레스티지",
    "location": "강원도 고성군(군)",
    "count": 13,
    "date": "2018-07-12",
    "details": "75A( 3세대), 75B( 1세대), 84A( 6세대), 84B( 3세대)",
    "tel": "033-637-0070"
  },
  {
    "row": 606,
    "name": "노원 꿈에그린",
    "location": "서울시 노원구(군)",
    "count": 1,
    "date": "2018-07-12",
    "details": "84C( 1세대)",
    "tel": "1544-3174"
  },
  {
    "row": 607,
    "name": "성남마크뷰",
    "location": "경기도 성남시(군)",
    "count": 2,
    "date": "2018-07-12",
    "details": "40( 1세대), 50A( 1세대)",
    "tel": "031-748-9341"
  },
  {
    "row": 608,
    "name": "新본리 동서프라임S",
    "location": "대구 달서구(군)",
    "count": 1,
    "date": "2018-07-16",
    "details": "84( 1세대)",
    "tel": "053-720-0011"
  },
  {
    "row": 609,
    "name": "대구역 한라하우젠트 센텀",
    "location": "대구광역시 북구(군)",
    "count": 3,
    "date": "2018-07-20",
    "details": "84A( 1세대), 84B( 2세대)",
    "tel": "053-756-1500"
  },
  {
    "row": 610,
    "name": "제일 오투그란데 김제 신풍동",
    "location": "전라북도 김제시(군)",
    "count": 2,
    "date": "2018-07-20",
    "details": "84( 2세대)",
    "tel": "1522-3382"
  },
  {
    "row": 611,
    "name": "약사지구 모아엘가 센텀뷰",
    "location": "강원도 춘천시(군)",
    "count": 9,
    "date": "2018-07-26",
    "details": "59(5세대), 73(2세대), 84A(2세대)",
    "tel": "033-253-0567"
  },
  {
    "row": 612,
    "name": "동래 래미안 아이파크",
    "location": "부산 동래구(군)",
    "count": 24,
    "date": "2018-07-31",
    "details": "59A( 3세대), 59B( 1세대), 75A( 4세대), 75B( 1세대), 84A( 8세대), 84B( 4세대), 84D( 3세대)",
    "tel": "051-555-3690"
  },
  {
    "row": 613,
    "name": "힐스테이트 연산",
    "location": "부산시 연제구(군)",
    "count": 6,
    "date": "2018-08-03",
    "details": "59( 1세대), 74( 1세대), 84A( 2세대), 84C( 2세대)",
    "tel": "1811-9333"
  },
  {
    "row": 614,
    "name": "속초 서희스타힐스 더베이 2차",
    "location": "강원도 속초시(군)",
    "count": 3,
    "date": "2018-08-09",
    "details": "77A( 1세대), 77B( 1세대), 84( 1세대)",
    "tel": "02-563-4884"
  },
  {
    "row": 615,
    "name": "부산 동래 더샵",
    "location": "부산시 동래구(군)",
    "count": 13,
    "date": "2018-08-17",
    "details": "74( 2세대), 84A( 1세대), 84B( 3세대), 84C( 5세대). 84D( 2세대)",
    "tel": "1566-0998"
  },
  {
    "row": 616,
    "name": "다사역 삼정그린코아 더베스트",
    "location": "대구시 달성군(군)",
    "count": 4,
    "date": "2018-08-17",
    "details": "59( 2세대), 84( 2세대)",
    "tel": "1670-2900"
  },
  {
    "row": 617,
    "name": "안심역 삼정그린코아 더베스트",
    "location": "대구시 동구(군)",
    "count": 5,
    "date": "2018-08-17",
    "details": "59B( 1세대), 59C( 1세대), 84( 3세대)",
    "tel": "053-964-6750"
  },
  {
    "row": 618,
    "name": "리젠시빌 란트 더웰",
    "location": "경기도 이천시(군)",
    "count": 8,
    "date": "2018-08-17",
    "details": "57A( 6세대), 57B( 2세대)",
    "tel": "031-631-0061"
  },
  {
    "row": 619,
    "name": "구미 문성레이크자이",
    "location": "경북 구미시(군)",
    "count": 16,
    "date": "2018-08-21",
    "details": "74A( 6세대), 74B( 1세대), 84A( 6세대), 84B( 3세대)",
    "tel": "054-442-8600"
  },
  {
    "row": 620,
    "name": "파주운정3 A4블록(10년공공임대)",
    "location": "경기도 파주시(군)",
    "count": 2,
    "date": "2018-08-21",
    "details": "59A( 1세대), 84A( 1세대)",
    "tel": "1600-1004"
  },
  {
    "row": 621,
    "name": "힐스테이트 범어 센트럴",
    "location": "대구 수성구(군)",
    "count": 3,
    "date": "2018-08-23",
    "details": "84A( 2세대), 84C( 1세대)",
    "tel": "1811-9001"
  },
  {
    "row": 622,
    "name": "다산 해모로",
    "location": "경기도 남양주시(군)",
    "count": 5,
    "date": "2018-08-23",
    "details": "39( 1세대), 59A( 2세대), 59B( 1세대), 84( 1세대)",
    "tel": "031-551-6280"
  },
  {
    "row": 623,
    "name": "검단오류역 우방아이유쉘",
    "location": "인천시 서구(군)",
    "count": 5,
    "date": "2018-08-04",
    "details": "66A( 3세대). 66C ( 1세대), 66D( 1세대)",
    "tel": "032-564-5678"
  },
  {
    "row": 624,
    "name": "부산 이진 젠시티",
    "location": "부산 부산진구(군)",
    "count": 5,
    "date": "2018-08-27",
    "details": "74A ( 2세대), 73B( 1세대), 84C( 1세대), 84D( 1세대)",
    "tel": "051-892-0001"
  },
  {
    "row": 625,
    "name": "하남감일 B5블록 10년공공임대",
    "location": "경기도 하남시(군)",
    "count": 1,
    "date": "2018-08-28",
    "details": "84A ( 1세대)",
    "tel": "031-790-7867"
  },
  {
    "row": 626,
    "name": "대구 수성 골드클래스",
    "location": "대구시 수성구(군)",
    "count": 7,
    "date": "2018-08-28",
    "details": "84A ( 5세대), 84B( 2세대)",
    "tel": "053-710-7990"
  },
  {
    "row": 627,
    "name": "안양 KCC 스위첸",
    "location": "경기도 안양시(군)",
    "count": 3,
    "date": "2018-08-29",
    "details": "59A ( 2세대), 59B( 1세대)",
    "tel": "1600-4520"
  },
  {
    "row": 628,
    "name": "대전 도룡 포레 미소지움",
    "location": "대전시 유성구(군)",
    "count": 2,
    "date": "2018-08-30",
    "details": "61B ( 1세대), 84A ( 1세대)",
    "tel": "042-487-2221"
  },
  {
    "row": 629,
    "name": "화성향남 사랑으로 부영아파트(10년 공공임대)",
    "location": "경기도 화성시(군)",
    "count": 9,
    "date": "2018-09-03",
    "details": "60 ( 2세대), 84A ( 5세대), 84B( 1세대), 84C( 1세대)",
    "tel": "031-8047-6285"
  },
  {
    "row": 630,
    "name": "진천역 라온프라이빗 센텀",
    "location": "대구시 달서구(군)",
    "count": 10,
    "date": "2018-09-03",
    "details": "68A ( 4세대), 68B( 2세대), 84A( 3세대), 84B( 1세대)",
    "tel": "1833-3848"
  },
  {
    "row": 631,
    "name": "화성남양뉴타운 B-6블록 10년 공공임대",
    "location": "경기도 화성시(군)",
    "count": 1,
    "date": "2018-09-03",
    "details": "69A ( 1세대)",
    "tel": "031-250-4980"
  },
  {
    "row": 632,
    "name": "이천시 라온프라이빗",
    "location": "경기도 이천시(군)",
    "count": 8,
    "date": "2018-09-04",
    "details": "75 ( 3세대), 84A( 3세대), 84B ( 1세대), 84C( 1세대)",
    "tel": "031-633-8884"
  },
  {
    "row": 633,
    "name": "영암 현대삼호 4차 아파트",
    "location": "전라남도 영암군(군)",
    "count": 4,
    "date": "2018-09-04",
    "details": "49 ( 4세대)",
    "tel": "061-460-4803"
  },
  {
    "row": 634,
    "name": "목포 하당지구 중흥 S-클래스",
    "location": "전라남도 목포시(군)",
    "count": 11,
    "date": "2018-09-04",
    "details": "84A ( 7세대), 84B ( 4세대)",
    "tel": "061-282-5054"
  }
]